district,address,room_count,area,floors,house_type,price,latitude,longitude
Stāvs:,- ,Sērija:103.104.119.467.602.Čehu pr.Hrušč.LT proj.M. ģim.P. karaPriv. m.Renov.Specpr.StaļinaJaun. ,Sērija,Cena,M. ģim.,280  €/mēn.,51.77014725,-1.2649910410071945
Stāvs:,- ,Sērija:103.104.119.467.602.Čehu pr.Hrušč.LT proj.M. ģim.P. karaPriv. m.Renov.Specpr.StaļinaJaun. ,Sērija,Cena,M. ģim.,280  €/mēn.,51.77014725,-1.2649910410071945
Čiekurkalns,Rusova 30,1,36,3/5,M. ģim.,280  €/mēn.,56.98664845,24.17400697498923
Iļģuciems,Palangas 7,3,66,5/5,LT proj.,"60,500  €",56.97087085,24.053864891592003
Purvciems,Varavīksnes g. 14,1,31,3/9,602.,"40,000  €",56.9521953,24.2048373
Teika,Brīvības 231,1,34,4/5,103.,290  €/mēn.,56.97667875,24.176255008198623
Pļavnieki,Jasmuižas 6,2,50,4/9,602.,"51,800  €",56.936898150000005,24.20926459415137
Purvciems,Burtnieku 35,1,13,3/4,Hrušč.,"18,500  €",56.9664204,24.1816747
Zolitūde,Ruses 20,2,59,5/6,119.,"64,500  €",56.94647355,24.00580932807084
Teika,Ropažu 35,3,78,2/3,P. kara,"107,000  €",56.9789467,24.17601354540493
Ķengarags,Prūšu 21/2,1,12,4/4,M. ģim.,"17,000  €",56.908522,24.1969884
Čiekurkalns,Rusova 24,1,43,1/5,M. ģim.,"36,000  €",56.987545350000005,24.170802940161952
Dzegužkalns,Dzirciema 7,2,49,2/5,LT proj.,370  €/mēn.,,
Vecmīlgrāvis,Vijolīšu 6,1,43,3/5,M. ģim.,"45,000  €",57.0350429,24.0944356
Teika,Brīvības 239,1,27,5/5,Specpr.,"48,000  €",56.97720845,24.178724282406527
centrs,Zvaigžņu 24,2,40,1/6,P. kara,40  €/dienā,57.38170015,21.566050482202836
Ķengarags,Ikšķiles 4,3,62,5/5,LT proj.,"67,900  €",56.90080385,24.20703229999999
centrs,Veru 3,2,38,1/5,Renov.,450  €/mēn.,56.961845,24.10100003927196
Vecmīlgrāvis,Atlantijas 8,1,38,4/5,Hrušč.,"36,000  €",57.03824655,24.08781580862039
centrs,Čaka 44,1,30,1/6,P. kara,280  €/ned.,56.9535326,24.13227026078947
Purvciems,Ieriķu 58,1,36,6/9,Specpr.,"46,999  €",56.9655739,24.18301731808966
centrs,Čaka 44,1,28,1/5,P. kara,30  €/dienā,56.9535326,24.13227026078947
Teika,Ieriķu 58,1,36,5/6,Specpr.,"46,999  €",56.9656754,24.1716043
Pļavnieki,Kaudzīšu 6,1,33,2/9,602.,220  €/mēn.,56.938986850000006,24.1985129889548
Sarkandaugava,Gaujienas 3a,1,36,2/2,Specpr.,"23,500  €",57.0071171,24.12327825
Vecmīlgrāvis,Vecmīlgrāvja 1. l. 49,2,50,4/5,LT proj.,250  €/mēn.,57.0288589,24.1070599
Sarkandaugava,Tvaika 54 k-1,1,30,5/5,Hrušč.,350  €/mēn.,57.0082917,24.123346
Āgenskalns,Dreiliņu 18,1,30,4/5,Hrušč.,"44,000  €",56.9413267,24.0606631
Bolderāja,Gobas 18,1,38,1/2,Staļina,120  €/mēn.,57.0303095,24.0519642
Stāvs:,- ,Sērija:103.104.119.467.602.Čehu pr.Hrušč.LT proj.M. ģim.P. karaPriv. m.Renov.Specpr.StaļinaJaun. ,Sērija,Cena,M. ģim.,"28,500  €",51.77014725,-1.2649910410071945
Stāvs:,- ,Sērija:103.104.119.467.602.Čehu pr.Hrušč.LT proj.M. ģim.P. karaPriv. m.Renov.Specpr.StaļinaJaun. ,Sērija,Cena,M. ģim.,"28,500  €",51.77014725,-1.2649910410071945
Dārzciems,Sesku 7,1,42,5/5,M. ģim.,"28,500  €",56.94505225,24.17412735
Jugla,Murjāņu 40,1,31,1/5,LT proj.,250  €/mēn.,56.9782178,24.248685114741967
Pļavnieki,Sesku 7,1,42,5/5,M. ģim.,"28,500  €",56.9459183,24.195573
centrs,Brīvības 150 k-2,2,43,1/4,P. kara,250  €/mēn.,56.9652949,23.1556406
Purvciems,Kastrānes 14,2,54,2/5,Specpr.,"80,000  €",56.9659974,24.1766569
Pļavnieki,Rencēnu 40,1,23,1/5,Renov.,"25,000  €",,
centrs,Sadovņikova 47,2,40,1/5,P. kara,360  €/mēn.,,
Krasta r-ns,Maskavas 188,2,41,4/9,Jaun.,"119,000  €",,
Imanta,Kurzemes pr. 88,3,54,5/5,LT proj.,300  €/mēn.,,
centrs,Dzirnavu 96,4,110,4/5,P. kara,630  €/mēn.,56.95008575,24.12430826659416
Ķengarags,Prūšu 21,1,18,3/4,M. ģim.,160  €/mēn.,56.9118027,24.1926528
Jugla,Murjāņu 48,2,45,5/5,LT proj.,260  €/mēn.,56.9777671,24.250166840644773
Imanta,Anniņmuižas 38,3,82,4/18,Jaun.,"165,000  €",56.96111815,24.018227955704056
Teika,Brīvības 215,2,39,2/3,Renov.,50  €/dienā,56.975238,24.172448948187675
Mežciems,Biķernieku 160,3,78,3/5,Jaun.,"156,000  €",56.9599931,24.2286894
Bieriņi,Raudas 9,2,38,1/2,P. kara,120  €/mēn.,56.92753635,24.057594321913022
Teika,Brīvības 215,2,39,2/3,Renov.,500  €/mēn.,56.975238,24.172448948187675
Vecrīga,Tirgoņu 17,2,54,3/5,Renov.,"150,000  €",56.9484815,24.1061513
Iļģuciems,Garā 28,3,65,3/5,LT proj.,"51,900  €",,
centrs,Stabu 89,1,35,3/5,Staļina,30  €/dienā,56.9599606,24.1209763
Šampēteris-Pleskodāle,Zalves 46,1,29,1/4,-,maiņai,56.9390488,24.036876000000007
Zolitūde,Bieziņa 10,3,75,10/5,119.,"69,300  €",56.94515505,24.02329050731449
Āgenskalns,Mārupes 13,2,45,1/2,Renov.,450  €/mēn.,56.9331893,24.071089435
Imanta,Kurzemes pr. 90,3,60,1/5,LT proj.,"41,000  €",,
Bolderāja,Lielupes 68,2,38,5/5,LT proj.,"29,000  €",57.03099155,24.057394668995837
Dārzciems,Nīcgales 47,1,34,3/5,103.,290  €/mēn.,56.9461178,24.173099986747744
Vecmīlgrāvis,Meldru 2,3,56,4/5,Hrušč.,"40,800  €",57.0275012,24.1036538
Purvciems,Vējavas 9c,2,75,1/4,Jaun.,"85,000  €",56.958955,24.17026729355616
Vecrīga,Kalēju 14,2,87,4/5,P. kara,750  €/mēn.,56.9483908,24.11070826217105
Stāvs:,- ,Sērija:103.104.119.467.602.Čehu pr.Hrušč.LT proj.M. ģim.P. karaPriv. m.Renov.Specpr.StaļinaJaun. ,Sērija,Cena,Renov.,"205,040  €",51.77014725,-1.2649910410071945
Stāvs:,- ,Sērija:103.104.119.467.602.Čehu pr.Hrušč.LT proj.M. ģim.P. karaPriv. m.Renov.Specpr.StaļinaJaun. ,Sērija,Cena,Renov.,"205,040  €",51.77014725,-1.2649910410071945
centrs,Brīvības 95,2,78,7/7,Renov.,"205,040  €",56.96131475,24.131717044166592
Vecmīlgrāvis,Baltāsbaznīcas 44,3,72,2/3,Specpr.,420  €/mēn.,57.0366979,24.0897398
centrs,Katrīnas 21,2,53,1/3,P. kara,"65,000  €",57.3961035,21.5695761
Purvciems,Deglava 59,3,77,2/6,119.,"83,500  €",56.9518031,24.165962
Purvciems,Zvaigznāja g. 14,2,50,3/5,LT proj.,"56,500  €",56.9528067,24.2062064
Mežaparks,Ezermalas 4/2,2,51,5/5,Specpr.,"58,000  €",56.9984019,24.1707634
centrs,Indrānu 1,3,52,3/4,P. kara,"94,300  €",,
Zolitūde,Gramzdas 17,3,75,5/9,119.,"68,500  €",56.944908600000005,24.00898897570804
Ķengarags,Višķu 19,1,30,4/5,LT proj.,"32,000  €",56.90032605,24.214265399999995
centrs,Barona 140,2,56,2/2,P. kara,200  €/mēn.,56.9541912,24.1272498
Teika,Ieriķu 60,2,50,7/9,Specpr.,310  €/mēn.,56.9656754,24.1716043
Ķengarags,Aviācijas 23 k1,1,31,6/12,Specpr.,"36,950  €",56.9039349,24.20031498142857
centrs,Ģertrūdes 62,2,40,5/6,P. kara,450  €/mēn.,56.9514154,24.1331187
Ķengarags,Salaspils 12/5,4,62,4/5,LT proj.,"90,000  €",56.9221101,24.1811252
Imanta,Anniņmuižas 38 k-3,2,57,6/18,Jaun.,"130,000  €",56.9608756,24.015701800228435
centrs,Zvaigžņu 2,2,35,5/5,P. kara,"58,900  €",57.3778046,21.5660475
centrs,Marijas 1,2,80,3/6,P. kara,"132,000  €",56.948011,24.1193558
centrs,Marijas 1,6,125,4/6,P. kara,"199,000  €",56.948011,24.1193558
centrs,Zvaigžņu 2b,1,26,4/6,P. kara,"32,000  €",57.3778046,21.5660475
Maskavas priekšpilsēta,Daugavpils 52,1,28,5/5,P. kara,250  €/mēn.,,
centrs,Brīvības 159,2,46,3/6,P. kara,"55,000  €",56.9537963,24.117328
Ķengarags,Maskavas 315,1,36,2/12,Čehu pr.,200  €/mēn.,56.9091346,24.18367779623388
Šampēteris-Pleskodāle,Irlavas 26,1,35,2/5,103.,"39,998  €",56.94004775,24.03471459886179
Purvciems,Nīcgales 4,2,50,8/9,602.,20  €/dienā,56.95855125,24.175387470071428
Āgenskalns,Melnsila 28,3,58,1/5,Hrušč.,"111,000  €",56.9463639,24.064095401489567
Jugla,Ciemupes 1,2,50,1/9,Jaun.,"76,000  €",56.9881961,24.246946592724093
Stāvs:,- ,Sērija:103.104.119.467.602.Čehu pr.Hrušč.LT proj.M. ģim.P. karaPriv. m.Renov.Specpr.StaļinaJaun. ,Sērija,Cena,602.,250  €/mēn.,51.77014725,-1.2649910410071945
Stāvs:,- ,Sērija:103.104.119.467.602.Čehu pr.Hrušč.LT proj.M. ģim.P. karaPriv. m.Renov.Specpr.StaļinaJaun. ,Sērija,Cena,602.,250  €/mēn.,51.77014725,-1.2649910410071945
Imanta,Dammes 4,1,35,4/9,602.,250  €/mēn.,56.96173755,24.01580305572784
Maskavas priekšpilsēta,Maskavas 190,1,32,3/9,Jaun.,390  €/mēn.,,
centrs,Brīvības 132,2,62,3/5,P. kara,620  €/mēn.,56.9631314,24.1377744
Bolderāja,Kodola 6,1,10,2/2,Specpr.,120  €/mēn.,57.036624,24.04255725000001
centrs,Vidus 11,3,118,2/6,Renov.,"1,200  €/mēn.",56.9615303,24.10291659587181
Čiekurkalns,Rusova 9,3,65,4/7,Jaun.,650  €/mēn.,56.9885541,24.16971784298676
centrs,Matīsa 49,3,70,1/5,P. kara,500  €/mēn.,56.955076000000005,24.13802250653813
centrs,Lāčplēša 129,2,39,1/4,P. kara,"65,500  €",55.8692828,26.5182187
centrs,Baznīcas 7,4,166,6/6,Renov.,"240,000  €",56.9557916,24.117568
Imanta,Anniņmuižas 92,2,50,3/9,602.,"64,500  €",56.9573992,24.0237329
centrs,Valdemāra 41a,2,40,3/7,Jaun.,750  €/mēn.,56.95912665,24.11669989974679
Pļavnieki,Saharova 27,3,74,13/16,Specpr.,"93,000  €",56.9413857,24.2040933
Jugla,Murjāņu 36,1,31,5/5,LT proj.,330  €/mēn.,56.97863375,24.247480052995385
Mežciems,Eizenšteina 35,4,78,6/9,602.,"85,000  €",56.9678443,24.234022900000006
centrs,Tomsona 2,4,123,3/6,P. kara,"198,500  €",56.96346405,24.12405597786933
Purvciems,Sesku 10,1,40,4/5,M. ģim.,250  €/mēn.,,
Purvciems,Staiceles 17,3,62,2/5,LT proj.,"53,990  €",56.95787475,24.1733414
Sarkandaugava,Priežu 14e-83,1,24,1/2,P. kara,"12,500  €",,
Āgenskalns,Daugavgrīvas 41,1,30,2/2,P. kara,"32,300  €",56.9441285,24.0836451
Purvciems,Stirnu 55,1,30,4/5,LT proj.,320  €/mēn.,56.96423965,24.1939779
Ķengarags,Ikšķiles 4,2,45,5/5,LT proj.,"49,900  €",56.90080385,24.20703229999999
Teika,Brīvības 215,2,53,5/5,Specpr.,"40,000  €",56.975238,24.172448948187675
Purvciems,Brantkalna 7,1,45,4/12,104.,270  €/mēn.,56.9500527,24.1921135
Pļavnieki,Salnas 21,2,47,3/9,Jaun.,"93,500  €",56.942327,24.23009287799782
Mežciems,Eizenšteina 37,2,51,1/9,602.,"57,750  €",56.9674866,24.23357643370678
Jugla,Kvēles 27,2,48,2/5,Hrušč.,300  €/mēn.,56.9820393,24.246020693013463
Ķengarags,Maskavas 307,2,38,3/5,LT proj.,230  €/mēn.,56.91116365,24.17949837015532
Ķengarags,Lokomotīves 62,2,38,1/5,LT proj.,260  €/mēn.,56.9066697,24.20501380558243
Stāvs:,- ,Sērija:103.104.119.467.602.Čehu pr.Hrušč.LT proj.M. ģim.P. karaPriv. m.Renov.Specpr.StaļinaJaun. ,Sērija,Cena,Hrušč.,"37,500  €",51.77014725,-1.2649910410071945
Stāvs:,- ,Sērija:103.104.119.467.602.Čehu pr.Hrušč.LT proj.M. ģim.P. karaPriv. m.Renov.Specpr.StaļinaJaun. ,Sērija,Cena,Hrušč.,"37,500  €",51.77014725,-1.2649910410071945
Purvciems,Ieriķu 19,2,45,1/2,Hrušč.,"37,500  €",56.9657678,24.1858786
Mežciems,Kaivas 60,1,32,9/9,Jaun.,280  €/mēn.,56.9571247,24.2475937
Jugla,Brīvības 386/1,2,48,12/10,Jaun.,590  €/mēn.,56.9907911,24.2466615
Pļavnieki,Lubānas 129,1,44,8/9,602.,"40,000  €",56.9411711,24.237357
centrs,Skolas 10,3,198,6/6,Renov.,"295,000  €",56.95679505,24.117743124113645
centrs,Grostonas 12,4,134,3/6,Jaun.,"2,000  €/mēn.",,
Iļģuciems,V. Buļļu 10,1,44,2/9,M. ģim.,"42,000  €",,
Pļavnieki,Dzeņu 1,2,50,3/9,602.,45  €/dienā,56.9408074,24.2087805127632
centrs,Pērnavas 39,1,25,1/6,Renov.,169  €/mēn.,,
Ziepniekkalns,Vienības g. 87a,4,102,1/3,Renov.,"170,000  €",,
Ziepniekkalns,Vienības g. 87A,5,118,1/3,Renov.,"200,600  €",,
Daugavgrīva,Slimnīcas 5,1,34,5/5,103.,"35,000  €",57.03916545,24.03121370376394
Purvciems,Ūnijas 76,3,63,5/5,LT proj.,300  €/mēn.,56.9609795,24.1836189
centrs,Brīvības 66,2,45,5/6,Staļina,520  €/mēn.,56.9569427,24.1232516
centrs,Dzirnavu 115A,1,117,3/5,P. kara,"210,000  €",56.9493669,24.12535822044176
Maskavas priekšpilsēta,Viļānu 9,1,33,2/5,Hrušč.,"32,000  €",,
Imanta,Zentenes 24,3,67,1/5,LT proj.,"49,950  €",56.96054995,24.002337056994552
Purvciems,Braslas 53,2,71,3/6,Jaun.,"126,000  €",56.95747179999999,24.16698908820361
Ķengarags,Maskavas 252/5,2,48,5/5,Hrušč.,"49,950  €",56.8997798,24.2039578
Imanta,Kooperatīva 38,3,64,5/5,LT proj.,450  €/mēn.,56.95963205,24.0312503
centrs,Zirņu 1,1,32,10/12,Specpr.,320  €/mēn.,,
centrs,Hospitāļu 3,1,29,3/5,P. kara,200  €/mēn.,,
Šampēteris-Pleskodāle,Lielirbes 11,3,101,20/24,Jaun.,"200,000  €",56.9348241,24.0428561
Ķengarags,Prūšu 23,3,57,4/5,Hrušč.,"68,000  €",56.91062315,24.194299121938517
centrs,Blaumaņa 32,5,132,5/6,P. kara,900  €/mēn.,56.9520624,24.1254698
centrs,Barona 63,5,155,3/5,Renov.,900  €/mēn.,56.9572331,24.1326688
centrs,Barona 63,2,60,2/5,Renov.,500  €/mēn.,56.9572331,24.1326688
Stāvs:,- ,Sērija:103.104.119.467.602.Čehu pr.Hrušč.LT proj.M. ģim.P. karaPriv. m.Renov.Specpr.StaļinaJaun. ,Sērija,Cena,Specpr.,240  €/mēn.,51.77014725,-1.2649910410071945
Stāvs:,- ,Sērija:103.104.119.467.602.Čehu pr.Hrušč.LT proj.M. ģim.P. karaPriv. m.Renov.Specpr.StaļinaJaun. ,Sērija,Cena,Specpr.,240  €/mēn.,51.77014725,-1.2649910410071945
Ziepniekkalns,Graudu 30a,1,29,1/2,Specpr.,240  €/mēn.,56.909665,24.0994122
Purvciems,Ilūkstes 101,2,53,1/5,103.,340  €/mēn.,56.9521699,24.19569529834171
Purvciems,Ūnijas 24,1,34,5/5,Specpr.,400  €/mēn.,56.9625569,24.1815831
centrs,Sadovņikova 39a,2,45,4/5,P. kara,350  €/mēn.,,
Zolitūde,Ruses 9,2,59,6/9,119.,"69,500  €",56.9473522,24.0057465
centrs,Ģertrūdes 113,2,56,1/6,P. kara,"91,000  €",56.9582121,24.1213972
centrs,Bruņinieku 45,4,115,3/6,P. kara,"268,000  €",56.9558551,24.13277968589744
centrs,Zirņu 5,2,50,5/9,467.,"79,900  €",,
Purvciems,Purvciema 46,1,39,2/5,M. ģim.,300  €/mēn.,56.95423785,24.183842
Jaunciems,Jaunciema g. 167,1,19,1/2,P. kara,"9,600  €",57.0473198,24.1756587
Ķengarags,Salaspils 6,3,60,2/5,LT proj.,"51,500  €",56.9224989,24.1797086
Iļģuciems,Spilves 39,3,62,5/5,LT proj.,"48,300  €",56.9698075,24.0481658
Iļģuciems,Buļļu 35A,3,54,4/5,LT proj.,"39,900  €",56.96943105,24.050885055079853
Pļavnieki,Jasmuižas 7,1,36,2/9,602.,"49,650  €",56.93721775,24.210225601936564
Āgenskalns,M. Nometņu 76,1,23,2/2,Renov.,290  €/mēn.,,
Pļavnieki,Salnas 1,4,75,9/9,467.,"75,000  €",56.9437576,24.217925052427685
Āgenskalns,Valentīna 16,2,50,1/3,Jaun.,"112,000  €",,
Purvciems,Dzelzavas 101,2,50,1/5,LT proj.,"56,500  €",56.95508045,24.205017412541544
Vecmīlgrāvis,Kāvu 4,2,51,4/5,LT proj.,"37,000  €",57.0331188,24.100459327776196
Zolitūde,Anniņmuižas 20,5,230,5/5,Jaun.,"279,000  €",56.94280435,24.017229193873447
Mangaļi,Carnikavas 3c,1,24,1/1,Jaun.,230  €/mēn.,,
Ķengarags,Aviācijas 23/1,1,33,6/12,Čehu pr.,"39,000  €",56.9013412,24.2054839
centrs,Elizabetes 9,3,70,5/5,Renov.,"146,000  €",56.9592539,24.100972
Teika,Biķernieku 11,4,93,3/4,P. kara,"179,500  €",56.9721296,24.1691892
Imanta,Imantas 3a,1,28,3/5,LT proj.,300  €/mēn.,56.9534164,24.026215098612447
Stāvs:,- ,Sērija:103.104.119.467.602.Čehu pr.Hrušč.LT proj.M. ģim.P. karaPriv. m.Renov.Specpr.StaļinaJaun. ,Sērija,Cena,LT proj.,"49,500  €",51.77014725,-1.2649910410071945
Stāvs:,- ,Sērija:103.104.119.467.602.Čehu pr.Hrušč.LT proj.M. ģim.P. karaPriv. m.Renov.Specpr.StaļinaJaun. ,Sērija,Cena,LT proj.,"49,500  €",51.77014725,-1.2649910410071945
Imanta,Kleistu 18,3,54,3/5,LT proj.,"49,500  €",56.9639437,24.0251169448514
Pļavnieki,Lubānas 123,1,39,2/16,Specpr.,300  €/mēn.,56.9411711,24.237357
Ķengarags,Maskavas 315,1,36,9/12,Čehu pr.,220  €/mēn.,56.9091346,24.18367779623388
Pļavnieki,Jasmuižas 10,3,62,2/9,602.,"69,500  €",56.93629135,24.21097456151544
Āgenskalns,Ernestīnes 4A,2,42,2/2,Specpr.,"46,000  €",56.9435901,24.0735055
Šampēteris-Pleskodāle,Lielirbes 13,3,90,6/30,Jaun.,"169,000  €",56.9348241,24.0428561
Šampēteris-Pleskodāle,Lielirbes 13,3,94,6/30,Jaun.,680  €/mēn.,56.9348241,24.0428561
centrs,Tallinas 91,1,24,1/3,Renov.,"54,500  €",56.9557254,24.1503509
centrs,Tallinas 91,3,105,1/3,Renov.,"245,700  €",56.9557254,24.1503509
centrs,Tallinas 91,2,36,3/3,Renov.,"87,700  €",56.9557254,24.1503509
centrs,Tallinas 91,3,47,2/3,Renov.,"111,900  €",56.9557254,24.1503509
Ķengarags,Maskavas 297,1,36,10/12,Čehu pr.,250  €/mēn.,56.9141664,24.176719627389215
centrs,Tallinas 91,1,20,1/3,Renov.,"45,900  €",56.9557254,24.1503509
Āgenskalns,Smiļģa 8,2,44,1/2,Renov.,520  €/mēn.,56.9419115,24.0804191077791
Āgenskalns,Ļermontova 3,2,51,1/2,M. ģim.,"74,200  €",56.94047275,24.07170967717864
Imanta,Kurzemes pr. 152,1,35,8/9,602.,"45,000  €",,
Čiekurkalns,Čiekurkalna 3. šķ l. 2,2,27,2/2,P. kara,"20,000  €",,
Mežaparks,Viestura pr. 24,1,31,5/5,Hrušč.,"36,000  €",,
Imanta,Anniņmuižas 38K1,2,118,1/18,Jaun.,"117,000  €",56.961182750000006,24.01721455431201
Imanta,Kleistu 6,3,54,5/5,LT proj.,390  €/mēn.,56.9603664,24.02378672059732
Vecmīlgrāvis,Dombrovska 7б,3,60,2/2,P. kara,"28,000  €",57.0277911,24.11380012084323
Purvciems,Lielvārdes 103,3,71,12/12,104.,"69,000  €",56.9601372,24.198582939838914
Iļģuciems,Lidoņu 19,2,49,3/5,LT proj.,290  €/mēn.,56.97071185,24.06133985914488
centrs,Artilērijas 25,3,60,2/3,P. kara,700  €/mēn.,56.9586169,24.1404527
Imanta,Slokas 111h,3,82,4/4,Jaun.,740  €/mēn.,56.96134625,24.039993072806983
centrs,Tallinas 30,1,33,1/5,Staļina,320  €/mēn.,56.9621313,24.1383736
Imanta,Kurzemes pr. 164,3,62,4/9,602.,"55,500  €",,
Iļģuciems,Spilves 35,3,60,1/5,LT proj.,"42,000  €",56.97089835,24.050697839740387
Stāvs:,- ,Sērija:103.104.119.467.602.Čehu pr.Hrušč.LT proj.M. ģim.P. karaPriv. m.Renov.Specpr.StaļinaJaun. ,Sērija,Cena,LT proj.,"66,500  €",51.77014725,-1.2649910410071945
Stāvs:,- ,Sērija:103.104.119.467.602.Čehu pr.Hrušč.LT proj.M. ģim.P. karaPriv. m.Renov.Specpr.StaļinaJaun. ,Sērija,Cena,LT proj.,"66,500  €",51.77014725,-1.2649910410071945
Purvciems,Andromedas g. 1,2,49,5/5,LT proj.,"66,500  €",56.9604406,24.1986457
centrs,Sadovņikova 21,3,54,1/4,Renov.,"87,000  €",,
centrs,Sadovņikova 21,1,35,4/5,Specpr.,"45,000  €",,
Ķengarags,Glūdas 15,2,47,1/5,Hrušč.,350  €/mēn.,56.91339875,24.1750019
Ķengarags,J. Rancāna 4,2,47,2/5,Hrušč.,"43,000  €",,
Ķengarags,Aglonas 31,2,40,1/5,Hrušč.,"48,000  €",56.9127093,24.184851050467408
Pļavnieki,Salnas 24,1,39,3/5,M. ģim.,200  €/mēn.,56.94167865,24.22621375
centrs,Dzirnavu 119,2,60,2/5,P. kara,500  €/mēn.,56.946983,24.1255417
Ziepniekkalns,Ēbeļmuižas 20,1,36,1/9,602.,"41,000  €",56.90359295,24.099094942910533
Pļavnieki,Deglava 126,3,79,2/9,119.,480  €/mēn.,56.94660995,24.200166341920063
Pļavnieki,Salnas 21,2,54,1/9,Jaun.,"83,000  €",56.942327,24.23009287799782
centrs,Alauksta 9,3,109,6/6,Jaun.,"200,000  €",,
Zolitūde,Augšzemes 5,3,90,2/4,Jaun.,"160,000  €",56.94414285,24.02350542614048
Imanta,Dammes 33,3,66,2/5,LT proj.,"66,000  €",56.9647216,24.00658904641454
centrs,Čaka 113,2,45,2/5,Renov.,600  €/mēn.,56.9588573,24.1409036
Vecmīlgrāvis,Dombrovska 47,4,78,5/9,602.,"76,500  €",57.0346715,24.09950273233128
centrs,Čaka 82,2,46,2/6,P. kara,520  €/mēn.,56.95638515,24.13822863315769
Sarkandaugava,Duntes 24,1,25,2/2,P. kara,"19,000  €",56.9843132,24.135995378428355
Mežciems,Druvienas 19,3,60,2/5,LT proj.,"53,500  €",56.9721158,24.22913725
Vecrīga,Aspazijas bulv. 30,3,101,2/6,P. kara,"550,000  €",,
Vecrīga,Šķūņu 6,1,42,3/4,Renov.,"142,000  €",56.948731550000005,24.107531942606784
Purvciems,Ainavas 2,2,37,1/5,LT proj.,"33,500  €",56.9640707,24.190404975597417
Mežciems,Hipokrāta 24,2,40,4/5,Jaun.,530  €/mēn.,56.96045145,24.24015598929696
Mežaparks,Ezermalas 2A,2,50,4/12,Čehu pr.,"49,900  €",56.9984019,24.1707634
centrs,Brīvības 103,3,89,3/6,P. kara,"183,000  €",56.9614331,24.1331108
Zolitūde,Lejiņa 16,1,43,8/9,119.,"49,800  €",56.9477553,24.022188344873264
Stāvs:,- ,Sērija:103.104.119.467.602.Čehu pr.Hrušč.LT proj.M. ģim.P. karaPriv. m.Renov.Specpr.StaļinaJaun. ,Sērija,Cena,602.,"29,500  €",51.77014725,-1.2649910410071945
Stāvs:,- ,Sērija:103.104.119.467.602.Čehu pr.Hrušč.LT proj.M. ģim.P. karaPriv. m.Renov.Specpr.StaļinaJaun. ,Sērija,Cena,602.,"29,500  €",51.77014725,-1.2649910410071945
Pļavnieki,Salnas 3,1,32,1/9,602.,"29,500  €",56.94361645,24.21888362164634
Āgenskalns,Kūdras 6,3,61,5/5,LT proj.,"63,000  €",,
Ķengarags,Kaņiera 16,1,31,1/12,Specpr.,300  €/mēn.,56.91465465,24.167929525452145
Vecmīlgrāvis,Ledus 2,1,35,3/9,602.,"34,500  €",57.03751635,24.095659131119135
Iļģuciems,Dzirciema 57,2,48,3/9,467.,"43,000  €",56.96156055,24.05295580144329
Iļģuciems,Baltā 17,2,50,4/5,LT proj.,"35,000  €",56.9699771,24.0655410145407
centrs,Valdemāra 69,2,55,1/6,Renov.,"99,800  €",56.9620417,24.1224439
Āgenskalns,Gregora 8,3,59,4/10,467.,"75,000  €",,
Purvciems,Ūnijas 78,1,30,2/5,LT proj.,"35,000  €",56.9600274,24.18377093217135
Purvciems,Mārcienas 6,2,57,4/9,119.,"57,000  €",56.9540573,24.1665288
Purvciems,Andromedas g. 5B,1,42,2/5,M. ģim.,"44,500  €",56.9604406,24.1986457
Teika,Biķernieku 24,1,35,1/2,P. kara,"42,000  €",56.9698781,24.183727
Āgenskalns,Ļermontova 3,2,52,2/2,Renov.,"79,500  €",56.94047275,24.07170967717864
centrs,Stabu 77,2,51,5/6,P. kara,"109,000  €",56.95260235,24.137179285051328
Purvciems,Ilūkstes 101k2,2,49,6/9,467.,"59,000  €",56.95231505,24.19385587970239
Zolitūde,Endzelīna 7,3,80,10/10,119.,"75,300  €",56.94677825,24.02464491193749
Zolitūde,Bieziņa 7,4,96,6/10,119.,"98,000  €",56.9452295,24.02045662144952
centrs,Bruņinieku 121b,1,35,1/5,Renov.,"70,000  €",56.961172,24.1229335
centrs,Dārzaugļu 1,4,111,6/6,Jaun.,"229,000  €",56.964818,24.1504388
Pļavnieki,Salnas 21,2,46,8/9,Jaun.,"92,000  €",56.942327,24.23009287799782
Āgenskalns,Mērsraga 9A,2,52,2/3,Renov.,"85,830  €",56.93499105,24.06341325
Pļavnieki,Pļavnieku 9,1,54,4/9,Jaun.,"98,500  €",56.94203495,24.21275136511194
Āgenskalns,Mērsraga 9,2,48,1/4,Renov.,"71,606  €",56.9349022,24.063902286829965
Jugla,Vidzemes al. 4,2,46,5/5,Hrušč.,"52,000  €",56.9925634,24.2424634
Jugla,Mārkalnes 9,1,32,1/5,M. ģim.,"32,000  €",56.9934003,24.22881077431854
Zolitūde,Apuzes 51a,3,85,2/3,Jaun.,"169,500  €",56.94199225,24.02071591989336
Vecrīga,Miesnieku 14,3,79,4/4,Renov.,"173,000  €",56.9488883,24.1023279
Stāvs:,- ,Sērija:103.104.119.467.602.Čehu pr.Hrušč.LT proj.M. ģim.P. karaPriv. m.Renov.Specpr.StaļinaJaun. ,Sērija,Cena,Specpr.,"49,000  €",51.77014725,-1.2649910410071945
Stāvs:,- ,Sērija:103.104.119.467.602.Čehu pr.Hrušč.LT proj.M. ģim.P. karaPriv. m.Renov.Specpr.StaļinaJaun. ,Sērija,Cena,Specpr.,"49,000  €",51.77014725,-1.2649910410071945
Jugla,Brīvības 405,3,59,4/5,Specpr.,"49,000  €",56.989837,24.23725981932524
Purvciems,Andromedas g. 12,1,28,4/5,LT proj.,"32,000  €",56.9604406,24.1986457
Ziepniekkalns,Valdeķu 60,1,34,7/9,602.,300  €/mēn.,56.9009684,24.0955431864208
Pļavnieki,Salnas 14,1,33,3/9,602.,"29,990  €",56.94212835,24.223040747717693
centrs,Tērbatas 45,3,75,3/5,Renov.,"1,100  €/mēn.",56.9559795,24.1255046
centrs,Tērbatas 45,2,72,2/5,Renov.,830  €/mēn.,56.9559795,24.1255046
Ķengarags,Pelnu 2,2,49,4/5,LT proj.,"65,000  €",56.907464700000006,24.20039794999999
Teika,Ropažu 24,2,41,4/5,Hrušč.,"45,900  €",56.97824795,24.172178330511954
Ķengarags,Maskavas 425,2,50,7/9,467.,230  €/mēn.,56.8985114,24.208727951588536
centrs,Grostonas 12,4,130,3/6,Jaun.,"2,000  €/mēn.",,
Dārzciems,Vietalvas 18,2,53,4/5,103.,200  €/mēn.,56.944070100000005,24.17000512541289
centrs,Brīvības 150,4,104,3/6,P. kara,"129,000  €",56.9537963,24.117328
Klīversala,Valguma 31,3,116,2/6,Jaun.,"240,000  €",,
centrs,Matīsa 93,3,91,6/6,P. kara,"60,000  €",56.9564621,24.134618
centrs,Brīvības 66,2,47,5/6,P. kara,"100,000  €",56.9569427,24.1232516
Sarkandaugava,Alekša 2,1,25,1/2,Priv. m.,180  €/mēn.,56.99269815,24.126273501114355
centrs,Blaumaņa 6,4,122,1/6,P. kara,"270,000  €",56.95531725,24.12122731547085
Imanta,Kurzemes pr. 164,2,50,5/9,602.,"49,500  €",,
centrs,Lugažu 12,2,65,2/2,Staļina,"55,000  €",,
centrs,Vidus 11,3,136,3/5,Renov.,"520,000  €",56.9615303,24.10291659587181
Imanta,Slokas 195,2,49,4/5,LT proj.,"50,000  €",56.96237035,24.01677641136364
Ķengarags,Ķengaraga 10,2,36,2/5,Jaun.,300  €/ned.,56.9164136,24.165004167158852
centrs,Eksporta 3,2,61,5/5,P. kara,"121,000  €",56.9607829,24.098686292714888
Āgenskalns,Jelgavas 65,2,42,2/4,Renov.,"105,493  €",,
centrs,Krāsotāju 13,1,26,1/5,Renov.,"36,864  €",,
Zolitūde,Zolitūdes 36,2,55,3/9,119.,340  €/mēn.,56.9469888,24.001310330471867
Iļģuciems,Lidoņu 7,3,65,2/5,LT proj.,"50,000  €",56.97162175,24.06713282637923
Sarkandaugava,Patversmes 26,2,39,5/5,Hrušč.,230  €/mēn.,56.98890165,24.13568806503879
Purvciems,Lielvārdes 121,3,55,5/5,LT proj.,450  €/mēn.,56.95679325,24.203146549999992
Stāvs:,- ,Sērija:103.104.119.467.602.Čehu pr.Hrušč.LT proj.M. ģim.P. karaPriv. m.Renov.Specpr.StaļinaJaun. ,Sērija,Cena,Renov.,"83,375  €",51.77014725,-1.2649910410071945
Stāvs:,- ,Sērija:103.104.119.467.602.Čehu pr.Hrušč.LT proj.M. ģim.P. karaPriv. m.Renov.Specpr.StaļinaJaun. ,Sērija,Cena,Renov.,"83,375  €",51.77014725,-1.2649910410071945
centrs,Krāsotāju 13,3,67,1/5,Renov.,"83,375  €",,
centrs,Krāsotāju 13,1,29,1/5,Renov.,"41,040  €",,
Āgenskalns,Kuldīgas 39,2,58,5/5,Specpr.,"121,000  €",56.9472982,24.057628800000003
Pļavnieki,Kaudzīšu 10,3,63,5/9,602.,"69,000  €",56.93970899999999,24.200115123682487
centrs,Avotu 4,1,23,2/5,Renov.,350  €/mēn.,56.96441175,23.1551734
centrs,Krāsotāju 13,2,42,1/5,Renov.,"51,875  €",,
centrs,Krāsotāju 13,1,27,5/5,Renov.,"39,750  €",,
centrs,Krāsotāju 13,2,38,1/5,Renov.,"46,875  €",,
centrs,Dārzaugļu 8,1,28,5/6,Renov.,290  €/mēn.,,
centrs,Krāsotāju 13,2,36,1/5,Renov.,"45,125  €",,
centrs,Krāsotāju 13,1,32,1/5,Renov.,"45,360  €",,
centrs,Krāsotāju 13,1,28,5/5,Renov.,"42,228  €",,
Mežciems,Juglas 100,3,63,1/5,Jaun.,"162,000  €",56.97994145,24.20473026481536
centrs,Dzirnavu 66,2,71,6/6,P. kara,700  €/mēn.,56.9532739,24.1212758
centrs,Rūpniecības 27,2,54,1/7,Jaun.,"160,500  €",56.9663415,24.10326172386397
Ziepniekkalns,Bauskas 75,2,36,3/5,Specpr.,250  €/mēn.,56.91470935,24.11132602225998
Vecmīlgrāvis,Dombrovska 41,1,34,5/9,602.,"40,000  €",57.0338789,24.1038405
Pļavnieki,Grestes 5,2,50,3/7,602.,"52,000  €",56.93598955,24.20972839881465
Purvciems,Biķernieku 67,1,28,2/5,Hrušč.,200  €/mēn.,,
Jugla,Tirzas 3 k-4,2,38,3/5,Hrušč.,"33,800  €",56.98889685,24.226113289464344
centrs,Lāčplēša 116,2,41,7/7,P. kara,345  €/mēn.,55.8692828,26.5182187
centrs,Krāsotāju 13,1,30,2/5,Renov.,"43,935  €",,
Teika,Āraišu 24,4,104,1/2,P. kara,"158,000  €",56.97405195,24.1770369
Purvciems,Varavīksnes g. 2,4,76,5/9,602.,"78,000  €",56.9521953,24.2048373
Stāvs:,- ,Sērija:103.104.119.467.602.Čehu pr.Hrušč.LT proj.M. ģim.P. karaPriv. m.Renov.Specpr.StaļinaJaun. ,Sērija,Cena,Renov.,"64,000  €",51.77014725,-1.2649910410071945
Stāvs:,- ,Sērija:103.104.119.467.602.Čehu pr.Hrušč.LT proj.M. ģim.P. karaPriv. m.Renov.Specpr.StaļinaJaun. ,Sērija,Cena,Renov.,"64,000  €",51.77014725,-1.2649910410071945
centrs,Bruņinieku 121b,1,30,1/5,Renov.,"64,000  €",56.961172,24.1229335
Imanta,Kurzemes pr. 86,1,28,5/5,LT proj.,300  €/mēn.,,
centrs,Dzirnavu 6,3,88,4/4,Renov.,"240,000  €",56.9612002,24.107539410990757
centrs,Brīvības 95,3,86,4/7,Renov.,"189,000  €",56.96131475,24.131717044166592
centrs,Tērbatas 82A,2,58,1/6,P. kara,"73,000  €",56.9608672,24.13805111738441
Ķengarags,Lokomotīves 74,1,31,2/5,Hrušč.,"35,000  €",56.90309005,24.21051822062977
centrs,Krasta 11,3,71,3/6,Renov.,"149,500  €",56.9689934,23.1689825
centrs,Brīvības 95,3,75,2/3,Renov.,"171,580  €",56.96131475,24.131717044166592
Pļavnieki,Deglava 108-3,2,58,3/9,119.,"60,000  €",56.9466236,24.2044183
Imanta,Anniņmuižas 38 k-2,2,56,12/17,Jaun.,"109,000  €",56.9609692,24.016443262331222
Āgenskalns,Liepājas 40,2,43,1/4,Hrušč.,"55,000  €",56.92935125,24.06658412109682
centrs,Barona 24/26,3,73,4/6,Renov.,"260,000  €",56.95161295,24.12245714786153
Ķengarags,Prūšu 20,1,30,2/5,Hrušč.,"34,000  €",56.91425235,24.185483337505133
Imanta,Imantas 31,3,106,7/7,Specpr.,"144,000  €",56.9591697,24.027295934365863
Teika,Zālīša 5,2,54,5/5,103.,"68,000  €",56.9722915,24.178007
Āgenskalns,Āgenskalna 20,1,32,4/5,Hrušč.,"51,700  €",56.9468695,24.06506041732673
centrs,Maskavas 88,3,80,5/6,P. kara,700  €/mēn.,57.4025243,21.5704533
Cits,Jelgavas 63,2,57,3/6,Renov.,"92,000  €",,
Jugla,Silciema 7,2,44,2/5,Hrušč.,"34,500  €",56.98755415,24.23870921456892
Purvciems,Viršu 6,2,57,6/12,104.,"55,001  €",56.95210285,24.180505912186508
Jugla,Mārkalnes 1,1,18,3/5,Hrušč.,"6,700  €",56.9917901,24.2289408
Mežaparks,Jaunā Mežaparka 34,4,120,1/3,Jaun.,"307,000  €",56.99383675,24.15716377593282
Stāvs:,- ,Sērija:103.104.119.467.602.Čehu pr.Hrušč.LT proj.M. ģim.P. karaPriv. m.Renov.Specpr.StaļinaJaun. ,Sērija,Cena,Jaun.,"269,700  €",51.77014725,-1.2649910410071945
Stāvs:,- ,Sērija:103.104.119.467.602.Čehu pr.Hrušč.LT proj.M. ģim.P. karaPriv. m.Renov.Specpr.StaļinaJaun. ,Sērija,Cena,Jaun.,"269,700  €",51.77014725,-1.2649910410071945
Mežaparks,Jaunā Mežaparka 32,3,115,1/3,Jaun.,"269,700  €",56.99412125,24.15764838584528
Ķengarags,Lokomotīves 80,2,44,1/5,LT proj.,"43,000  €",56.90261215,24.212121438993705
Ķengarags,Rušonu 3,1,39,5/5,M. ģim.,"35,000  €",56.9127758,24.1826852
Pļavnieki,Ilūkstes 38,3,79,1/9,119.,"65,500  €",56.94537795,24.19853385
Ķengarags,Aglonas 33,3,53,5/5,Hrušč.,"52,000  €",56.9124243,24.185442185443197
Purvciems,Dzelzavas 15/1,1,31,4/5,Hrušč.,"32,900  €",56.9622361,24.1716621
Jaunciems,Jaunciema g. 79,1,38,1/3,Specpr.,"34,900  €",57.0473198,24.1756587
Ķengarags,Maskavas 423,1,31,4/5,LT proj.,"36,500  €",56.89988695,24.209253200000006
centrs,Matīsa 93,1,91,6/6,P. kara,"50,000  €",56.9564621,24.134618
centrs,Valdemāra 73,3,66,6/6,P. kara,"165,000  €",56.9622133,24.1233217
centrs,Brīvības 71,3,80,3/5,Renov.,"1,200  €/mēn.",56.9589224,24.12524037481344
centrs,Tērbatas 55,4,101,4/6,P. kara,500  €/mēn.,56.9570214,24.1281093
Purvciems,Ūnijas 70,3,60,2/5,LT proj.,"47,000  €",56.96220485,24.18099579048994
centrs,Marijas 18,4,99,6/7,Renov.,990  €/mēn.,56.9505809,24.12586875580611
Imanta,Jūrmalas g. 37a,2,53,2/3,Staļina,"59,000  €",56.9529998,24.0165749
centrs,Raiņa bulv. 31,2,89,1/6,P. kara,500  €/mēn.,,
centrs,Visvalža 3A,2,53,4/5,P. kara,"65,000  €",,
Ķengarags,Maskavas 260 k-7,2,45,1/5,Hrušč.,"29,000  €",56.9076107,24.17873672970414
Zolitūde,Liedes 28,2,57,1/4,Jaun.,500  €/mēn.,56.94283395,24.02040137468294
Purvciems,Dudajeva g. 3,2,48,1/5,LT proj.,"43,000  €",56.9575254,24.1942844
Pļavnieki,Ilūkstes 38,4,99,6/9,119.,"105,000  €",56.94537795,24.19853385
Iļģuciems,Lidoņu 1,3,79,1/3,Staļina,"72,000  €",56.9703268,24.07137766932911
Purvciems,Upeņu 19,1,35,2/8,Jaun.,50  €/dienā,56.96054655,24.19248658018755
Mežaparks,Inčukalna 2,3,79,1/5,Renov.,"169,000  €",56.9960407,24.14246281831603
Sarkandaugava,Tvaika 54,2,42,1/5,Hrušč.,"42,500  €",57.008275,24.1229574
Stāvs:,- ,Sērija:103.104.119.467.602.Čehu pr.Hrušč.LT proj.M. ģim.P. karaPriv. m.Renov.Specpr.StaļinaJaun. ,Sērija,Cena,P. kara,900  €/mēn.,51.77014725,-1.2649910410071945
Stāvs:,- ,Sērija:103.104.119.467.602.Čehu pr.Hrušč.LT proj.M. ģim.P. karaPriv. m.Renov.Specpr.StaļinaJaun. ,Sērija,Cena,P. kara,900  €/mēn.,51.77014725,-1.2649910410071945
centrs,Blaumaņa 32,5,135,5/6,P. kara,900  €/mēn.,56.9520624,24.1254698
Torņakalns,Satiksmes 1,1,40,1/4,P. kara,170  €/mēn.,56.92745895,24.091479031541382
centrs,Barona 63,5,155,3/5,Renov.,900  €/mēn.,56.9572331,24.1326688
centrs,Mūrnieku 12,2,28,2/2,Renov.,"22,500  €",,
Teika,Palmu 11,1,34,5/5,103.,200  €/mēn.,56.979721350000005,24.180629376988392
Āgenskalns,M. Nometņu 7,1,32,2/5,P. kara,18  €/dienā,,
centrs,Marijas 15,3,91,6/6,P. kara,"227,500  €",56.95029005,24.12406799743038
Purvciems,Dzelzavas 81,2,49,8/9,467.,"66,000  €",56.957137,24.201173391462103
Zolitūde,Zolitūdes 36/1,1,45,8/9,119.,269  €/mēn.,56.9485467,23.9995972
Purvciems,Vaidavas 2,1,35,4/5,Specpr.,30  €/dienā,56.9651158,24.17605013260422
Sarkandaugava,Tilta 3,3,69,4/5,Specpr.,"87,000  €",56.99504395,24.127010310629814
Vecmīlgrāvis,Stiebru 7,1,43,4/5,M. ģim.,"30,000  €",57.0348164,24.09529034976264
Krasta r-ns,Krasta 86,2,67,5/11,Jaun.,"133,000  €",,
Teika,Bērzpils 65,3,58,1/2,Staļina,"69,900  €",56.9846638,24.197961300000003
Pļavnieki,Rembates 8,3,69,2/10,Jaun.,"145,000  €",56.94077425,24.230074618165425
Āgenskalns,Melnsila 20,3,59,5/5,Specpr.,"58,000  €",56.9459988,24.066092846559453
Pļavnieki,Pļavnieku 6,2,51,4/9,602.,"68,000  €",56.94192865,24.210909209797325
centrs,Elizabetes 29b,3,86,4/4,Renov.,900  €/mēn.,56.958696,24.109134579725165
Jugla,Brīvības 388,1,35,5/12,M. ģim.,"42,800  €",56.98643215,24.222461582838367
centrs,Lenču 2,2,57,2/6,P. kara,"109,000  €",56.9616145,24.1100341
centrs,Puškina 2,3,63,3/3,P. kara,"65,000  €",57.3913156,21.552374862904685
centrs,Krāsotāju 13,1,31,3/5,Renov.,"52,700  €",,
centrs,Krāsotāju 13,1,25,2/5,Renov.,"42,840  €",,
centrs,Krāsotāju 13,3,55,3/5,Renov.,"90,915  €",,
centrs,Krāsotāju 13,1,31,5/5,Renov.,"51,500  €",,
Purvciems,Stirnu 22,2,37,2/5,Specpr.,270  €/mēn.,56.95626335,24.18334655982182
Purvciems,Dudajeva g. 6,3,66,1/5,LT proj.,360  €/mēn.,56.9575254,24.1942844
Mežciems,Hipokrāta 17,1,32,8/9,602.,"35,000  €",56.96614445,24.23733730225384
Čiekurkalns,Čiekurkalna 2. l. 21,1,40,3/3,Renov.,260  €/mēn.,56.9834242,24.1592013
Stāvs:,- ,Sērija:103.104.119.467.602.Čehu pr.Hrušč.LT proj.M. ģim.P. karaPriv. m.Renov.Specpr.StaļinaJaun. ,Sērija,Cena,Renov.,"84,000  €",51.77014725,-1.2649910410071945
Stāvs:,- ,Sērija:103.104.119.467.602.Čehu pr.Hrušč.LT proj.M. ģim.P. karaPriv. m.Renov.Specpr.StaļinaJaun. ,Sērija,Cena,Renov.,"84,000  €",51.77014725,-1.2649910410071945
Teika,Vidrižu 4,2,53,3/9,Renov.,"84,000  €",56.9788671,24.1774824079002
Krasta r-ns,Zilupes 24,2,50,8/9,467.,350  €/mēn.,,
centrs,Alunāna 2,3,130,1/5,P. kara,"1,100  €/mēn.",56.9558836,24.1099178
Iļģuciems,Buļļu 40b,2,42,3/5,Hrušč.,"35,000  €",56.9677411,24.05126620939312
Ķengarags,Lokomotīves 80,3,61,3/5,LT proj.,"46,000  €",56.90261215,24.212121438993705
Teika,Bērzpils 3,2,42,4/5,Hrušč.,400  €/mēn.,56.9848186,24.1978461
Pļavnieki,Grestes 4,2,55,6/9,602.,350  €/mēn.,56.93638985,24.206615923577623
centrs,Katrīnas d. 16A,2,43,5/5,Hrušč.,460  €/mēn.,57.3961035,21.5695761
centrs,Čaka 33,1,34,4/7,Renov.,600  €/mēn.,56.9521436,24.1276865
centrs,Sadovņikova 47,1,30,5/5,P. kara,260  €/mēn.,,
Krasta r-ns,Salacas 1,1,30,2/4,Renov.,49  €/dienā,,
Mežaparks,Ezermalas 4,1,18,4/5,Renov.,"46,000  €",56.99634399999999,24.170959728687947
Imanta,Anniņmuižas 54,2,51,3/9,602.,"65,000  €",56.95764855,24.00823179260924
Pļavnieki,Ilūkstes 4,1,45,9/9,M. ģim.,"42,980  €",56.93391825,24.196113058652745
centrs,Kazarmu 2a,4,97,4/4,P. kara,"79,000  €",,
Ziepniekkalns,Valdeķu 54/2,3,62,7/9,602.,"59,000  €",56.8985515,24.0920612
Pļavnieki,Salnas 21,2,45,4/8,Jaun.,460  €/mēn.,56.942327,24.23009287799782
Jugla,Mārkalnes 1,1,18,3/5,M. ģim.,120  €/mēn.,56.9917901,24.2289408
Teika,Turaidas 6,2,46,3/5,Jaun.,650  €/mēn.,56.967642600000005,24.15859858876042
Mežciems,Druvienas 34,3,60,1/5,LT proj.,320  €/mēn.,56.9698179,24.23250115000001
Sarkandaugava,Priežu 14,1,21,2/3,Renov.,280  €/mēn.,56.9924301,24.1288484
centrs,Elijas 19,2,38,3/6,Renov.,300  €/mēn.,,
Purvciems,Stirnu 19,2,36,2/5,LT proj.,250  €/mēn.,56.95663,24.1819943
Teika,Brīvības 231,1,32,4/5,Hrušč.,270  €/mēn.,56.97667875,24.176255008198623
centrs,Dzirnavu 113,2,45,3/4,P. kara,350  €/mēn.,56.9497335,24.1258382
Iļģuciems,Dzirciema 57,3,60,2/9,467.,450  €/mēn.,56.96156055,24.05295580144329
Sarkandaugava,Tilta 24,2,49,4/4,P. kara,300  €/mēn.,56.9949274,24.128652313318533
Maskavas priekšpilsēta,Maskavas 213,3,59,6/9,467.,"57,500  €",,
Stāvs:,- ,Sērija:103.104.119.467.602.Čehu pr.Hrušč.LT proj.M. ģim.P. karaPriv. m.Renov.Specpr.StaļinaJaun. ,Sērija,Cena,119.,350  €/mēn.,51.77014725,-1.2649910410071945
Stāvs:,- ,Sērija:103.104.119.467.602.Čehu pr.Hrušč.LT proj.M. ģim.P. karaPriv. m.Renov.Specpr.StaļinaJaun. ,Sērija,Cena,119.,350  €/mēn.,51.77014725,-1.2649910410071945
Purvciems,Ilūkstes 50,1,46,2/9,119.,350  €/mēn.,56.94963665,24.198608337000984
Mežciems,Hipokrāta 37,2,51,5/9,602.,"62,000  €",56.9597951,24.237752917383677
centrs,Ganu 3,2,34,1/2,P. kara,420  €/mēn.,56.9619549,24.109404
Purvciems,Ūnijas 38,1,22,1/2,Specpr.,300  €/mēn.,56.9625569,24.1815831
Dārzciems,Lubānas 47,1,29,2/3,Hrušč.,"35,500  €",56.93172465000001,24.177279739567982
Imanta,Vīksnes 21,4,320,7/8,Jaun.,"310,000  €",56.95789295,24.00103547044425
centrs,Ģertrūdes 100,2,42,2/5,P. kara,"89,000  €",56.95933,24.1190821
Teika,Ropažu 87,1,38,3/5,M. ģim.,"29,000  €",56.98238375,24.19034475
Imanta,Anniņmuižas 38k3,2,56,8/18,Jaun.,"119,000  €",56.9608756,24.015701800228435
Mežciems,Kaivas 50 k2,4,98,5/5,Jaun.,"169,000  €",56.9571247,24.2475937
Ķengarags,Prūšu 20,2,41,4/5,Hrušč.,390  €/mēn.,56.91425235,24.185483337505133
centrs,Baznīcas 13,3,123,5/5,P. kara,"1,300  €/mēn.",56.956462,24.1187486
centrs,Antonijas 16a,3,80,2/7,Jaun.,"260,000  €",56.95951295,24.11349492705972
Krasta r-ns,Zilupes 31,3,59,7/9,467.,"49,000  €",,
Jugla,Kvēles 35,1,33,2/5,LT proj.,350  €/mēn.,56.98280385,24.24821076410569
Imanta,Anniņmuižas 43,3,105,21/24,Jaun.,"195,000  €",56.9589929,24.01397786996067
Ziepniekkalns,Zaļenieku 40a,1,30,5/5,Hrušč.,320  €/mēn.,56.9050388,24.10127997534021
Zolitūde,Ruses 14,3,79,4/9,119.,"90,500  €",56.9472328,24.00428119416181
Ķengarags,J. Rancāna 6,1,31,5/5,Hrušč.,"31,000  €",,
centrs,Ģertrūdes 135,4,100,2/5,P. kara,"134,000  €",56.9582121,24.1213972
centrs,Bruņinieku 79B,2,34,1/2,P. kara,"53,000  €",56.9525102,24.13991867218528
Imanta,Kurzemes pr. 104A,1,28,3/5,LT proj.,260  €/mēn.,,
centrs,Dzirnavu 83,3,135,7/7,Jaun.,"2,500  €/mēn.",56.95355435,24.122246109100512
centrs,Visvalža 3,2,50,5/5,P. kara,395  €/mēn.,,
Iļģuciems,Garā 33,2,49,2/5,LT proj.,"41,900  €",,
centrs,Teātra 12,5,136,6/7,P. kara,"272,000  €",55.8661981,26.517645
centrs,Maskavas 48,2,28,1/4,Renov.,420  €/mēn.,57.4025243,21.5704533
Jugla,Murjāņu 36,2,43,1/5,LT proj.,"35,000  €",56.97863375,24.247480052995385
centrs,Laboratorijas 21,2,40,2/5,Specpr.,300  €/mēn.,,
Sarkandaugava,Sarkandaugavas 2,1,34,2/5,103.,"31,500  €",56.9951843,24.1265163
Stāvs:,- ,Sērija:103.104.119.467.602.Čehu pr.Hrušč.LT proj.M. ģim.P. karaPriv. m.Renov.Specpr.StaļinaJaun. ,Sērija,Cena,LT proj.,300  €/mēn.,51.77014725,-1.2649910410071945
Stāvs:,- ,Sērija:103.104.119.467.602.Čehu pr.Hrušč.LT proj.M. ģim.P. karaPriv. m.Renov.Specpr.StaļinaJaun. ,Sērija,Cena,LT proj.,300  €/mēn.,51.77014725,-1.2649910410071945
Imanta,Jūrmalas g. 93,2,49,4/5,LT proj.,300  €/mēn.,56.9529998,24.0165749
Āgenskalns,Gardenes 5,2,41,4/5,Hrušč.,"51,800  €",56.92800055,24.074205289292436
centrs,Gogoļa 13,3,87,4/5,P. kara,690  €/mēn.,56.9464023,24.118269
centrs,Duntes 29,1,21,2/3,P. kara,"17,200  €",,
centrs,Maskavas 48A,1,20,5/6,Renov.,360  €/mēn.,57.4025243,21.5704533
Āgenskalns,Dreiliņu 16,2,40,2/5,Hrušč.,400  €/mēn.,56.9413267,24.0606631
Pļavnieki,Kaudzīšu 22,4,73,3/9,602.,500  €/mēn.,56.93855065,24.20157666062909
centrs,Tērbatas 6/8,3,109,5/6,P. kara,"245,000  €",56.9532451,24.1204527
Zolitūde,Liedes 2,3,89,3/4,Jaun.,600  €/mēn.,56.9444498,24.02558830413396
Ziepniekkalns,Valdeķu 15,2,50,5/5,Hrušč.,"64,300  €",56.9152963,24.096201565849253
Mežciems,Kaivas 50,1,32,4/5,Jaun.,"61,500  €",56.9571247,24.2475937
Teika,Zemgala 80,4,96,4/12,Jaun.,"230,000  €",56.9777452,24.16604241357143
Pļavnieki,Dravnieku 4,2,60,4/16,104.,"87,000  €",56.9433742,24.20904629661148
Vecrīga,Kalēju 37,3,50,3/4,Renov.,530  €/mēn.,56.9469015,24.1127752
Čiekurkalns,Ezermalas 2a,1,34,7/12,Čehu pr.,"51,500  €",56.9925421,24.193121253063588
centrs,Tērbatas 72,3,81,3/7,Jaun.,950  €/mēn.,56.95828285,24.132952709707837
centrs,Martas 9,3,92,2/5,P. kara,"1,000  €/mēn.",56.955227,24.128670987508468
Āgenskalns,M. Nometņu 3,2,54,3/6,Specpr.,"72,000  €",,
Klīversala,Raņķa d. 7,2,42,1/1,103.,320  €/mēn.,,
Krasta r-ns,Krīdenera d. 11,2,42,2/2,Priv. m.,320  €/mēn.,,
Mežciems,Biķernieku 216,2,53,3/5,103.,"68,000  €",56.9599931,24.2286894
Torņakalns,Ģimnastikas 6,3,62,2/5,LT proj.,"70,000  €",,
Purvciems,Pūces 43,2,73,2/6,Jaun.,"159,900  €",56.95305905,24.189578420504844
Dzegužkalns,Jūrmalas g. 1B,1,36,9/12,Čehu pr.,288  €/mēn.,,
Ķengarags,Maskavas 256/7,2,46,5/5,LT proj.,"41,500  €",56.8997798,24.2039578
Purvciems,Dzelzavas 21,2,44,4/5,Hrušč.,320  €/mēn.,56.96121715,24.174310820619613
Pļavnieki,Salnas 21,2,46,1/9,Jaun.,"81,500  €",56.942327,24.23009287799782
Šampēteris-Pleskodāle,Stendes 7,1,20,2/3,Specpr.,120  €/mēn.,56.9397069,24.0349581
centrs,Tērbatas 33/35,2,33,1/6,Renov.,"88,500  €",56.9552913,24.1242923
Stāvs:,- ,Sērija:103.104.119.467.602.Čehu pr.Hrušč.LT proj.M. ģim.P. karaPriv. m.Renov.Specpr.StaļinaJaun. ,Sērija,Cena,104.,130  €/mēn.,51.77014725,-1.2649910410071945
Stāvs:,- ,Sērija:103.104.119.467.602.Čehu pr.Hrušč.LT proj.M. ģim.P. karaPriv. m.Renov.Specpr.StaļinaJaun. ,Sērija,Cena,104.,130  €/mēn.,51.77014725,-1.2649910410071945
Purvciems,Dzelzavas 38,1,13,8/12,104.,130  €/mēn.,56.9583699,24.1789809
Vecmīlgrāvis,Skuju 12,2,50,3/5,LT proj.,"34,000  €",57.03037595,24.10562754446474
Imanta,Slokas 183,2,49,3/9,602.,"50,000  €",56.9624436,24.01914687940092
centrs,Valdemāra 39,5,160,4/7,P. kara,"265,000  €",56.9585942,24.1172511
centrs,Miera 10,3,89,5/6,P. kara,600  €/mēn.,56.9610882,24.130431483509582
Ziepniekkalns,Ģimnastikas 6,3,62,2/5,LT proj.,"70,000  €",56.9161344,24.08880454844062
Pļavnieki,Tīnūžu 12,4,76,6/8,467.,"62,900  €",56.93400615,24.20752423188153
centrs,Pulkv. Brieža 46,2,39,2/3,Renov.,"88,150  €",,
Purvciems,Ilūkstes 42,1,43,7/9,119.,"50,000  €",56.9488063,24.19795503270792
Pļavnieki,Ulbrokas 12,1,40,3/5,M. ģim.,250  €/mēn.,56.94122905,24.217423167468997
Ķengarags,Salaspils 18,4,60,3/5,LT proj.,"67,000  €",56.9180308,24.18282595
Jaunciems,Gaileņu 2,1,23,1/2,P. kara,"9,670  €",57.04456385,24.1713785
centrs,Dzirnavu 6,3,88,4/4,Renov.,"240,000  €",56.9612002,24.107539410990757
centrs,Pērnavas 4,3,58,1/3,P. kara,450  €/mēn.,,
centrs,Stabu 62,2,47,1/4,P. kara,"94,000  €",56.9528546,24.1352223
centrs,Artilērijas 71,3,102,3/4,P. kara,"130,000  €",56.9547483,24.14789524378508
centrs,Bruņinieku 88,2,43,4/4,P. kara,"67,000  €",56.961172,24.1229335
Ziepniekkalns,Ozolciema 18,2,60,7/10,119.,"52,500  €",56.89859735,24.08767077416605
centrs,Dzirnavu 10,3,88,3/5,Renov.,"195,000  €",56.9609418,24.10796360617932
centrs,Dzirnavu 9,2,95,3/4,P. kara,"249,000  €",56.9610245,24.1085131
Purvciems,Deglava 122,3,76,2/9,119.,"89,000  €",56.9518031,24.165962
Ķengarags,Salaspils 12/1,2,50,5/5,LT proj.,250  €/mēn.,56.9221101,24.1811252
Imanta,Kleistu 11 k-1,3,77,7/12,Jaun.,"147,000  €",56.963977,24.0209203
centrs,Merķeļa 7,1,30,2/5,Renov.,500  €/mēn.,56.9488559,24.11897525334369
Teika,Ropažu 60a,2,65,2/3,Staļina,"85,000  €",56.9807139,24.1811389
Āgenskalns,Liepājas 2,4,145,5/6,Jaun.,"370,000  €",56.93337015,24.07760365777052
Iļģuciems,Vaidelotes 13,2,43,4/5,Hrušč.,"49,900  €",56.96655,24.0517451
centrs,Lienes 9,1,36,2/5,P. kara,"47,000  €",,
centrs,Matīsa 63,2,43,3/7,Renov.,"94,905  €",56.95417925,24.13994026860536
Stāvs:,- ,Sērija:103.104.119.467.602.Čehu pr.Hrušč.LT proj.M. ģim.P. karaPriv. m.Renov.Specpr.StaļinaJaun. ,Sērija,Cena,P. kara,"135,500  €",51.77014725,-1.2649910410071945
Stāvs:,- ,Sērija:103.104.119.467.602.Čehu pr.Hrušč.LT proj.M. ģim.P. karaPriv. m.Renov.Specpr.StaļinaJaun. ,Sērija,Cena,P. kara,"135,500  €",51.77014725,-1.2649910410071945
centrs,Brīvības 150,4,109,5/6,P. kara,"135,500  €",56.9537963,24.117328
Vecrīga,M. Smilšu 16,4,147,5/5,P. kara,"405,000  €",,
Ziepniekkalns,Ziepniekkalna 75,4,153,4/4,Jaun.,"299,000  €",56.901134,24.133145
centrs,Indrānu 4,3,63,4/4,P. kara,"85,000  €",,
Āgenskalns,Raņķa d. 34,3,88,13/22,Jaun.,"243,000  €",56.9450949,24.0837011
Āgenskalns,Raņķa d. 34,3,95,8/22,Jaun.,"221,000  €",56.9450949,24.0837011
Āgenskalns,Raņķa d. 34,3,113,6/22,Jaun.,"276,000  €",56.9450949,24.0837011
Āgenskalns,Raņķa d. 34,4,133,14/22,Jaun.,"352,000  €",56.9450949,24.0837011
Āgenskalns,Raņķa d. 34,4,114,10/22,Jaun.,"311,000  €",56.9450949,24.0837011
centrs,Republikas laukums 3,4,106,1/7,Jaun.,"180,000  €",56.9555576,24.0996114
centrs,Laboratorijas 4,3,67,2/5,Renov.,"94,500  €",,
centrs,Laboratorijas 4,4,67,2/5,Renov.,"106,500  €",,
Sarkandaugava,Tvaika 34,1,22,5/5,Renov.,165  €/mēn.,57.0024524,24.118910937501568
Mežaparks,Inčukalna 2,2,60,3/4,Jaun.,"139,000  €",56.9960407,24.14246281831603
Pļavnieki,Dzeņu 7/1,2,53,5/8,Jaun.,450  €/mēn.,56.9401889,24.2111828
centrs,Bruņinieku 121,3,63,3/5,Renov.,"124,900  €",56.961172,24.1229335
Teika,Bērzpils 3,2,43,5/5,Hrušč.,"51,000  €",56.9848186,24.1978461
centrs,Ieroču 1,3,93,2/4,Staļina,"160,000  €",,
centrs,Matīsa 63,2,37,2/7,Renov.,"82,935  €",56.95417925,24.13994026860536
centrs,Matīsa 63,2,42,2/7,Renov.,"94,050  €",56.95417925,24.13994026860536
centrs,Eksporta 12,3,103,2/6,Renov.,650  €/mēn.,56.9593516,24.0983542
centrs,Marijas 23,4,116,2/6,P. kara,"189,000  €",56.951007,24.1259434
centrs,Elizabetes 3,6,145,2/5,Renov.,"1,475,000  €",56.95953825,24.09943466669975
centrs,Asara 20,1,25,1/6,P. kara,190  €/mēn.,,
Ķengarags,Ikšķiles 7k1,1,33,1/9,467.,"48,000  €",56.90369055,24.204876956309285
centrs,Klijānu 6,2,46,5/9,Jaun.,"85,000  €",,
Pļavnieki,J. Vācieša 4,2,51,8/9,602.,"59,800  €",,
Maskavas priekšpilsēta,Kalupes 11,2,35,3/5,Hrušč.,"30,000  €",,
Stāvs:,- ,Sērija:103.104.119.467.602.Čehu pr.Hrušč.LT proj.M. ģim.P. karaPriv. m.Renov.Specpr.StaļinaJaun. ,Sērija,Cena,P. kara,320  €/mēn.,51.77014725,-1.2649910410071945
Stāvs:,- ,Sērija:103.104.119.467.602.Čehu pr.Hrušč.LT proj.M. ģim.P. karaPriv. m.Renov.Specpr.StaļinaJaun. ,Sērija,Cena,P. kara,320  €/mēn.,51.77014725,-1.2649910410071945
centrs,Klijānu 5,2,50,4/6,P. kara,320  €/mēn.,,
centrs,Rūdolfa 1,1,31,1/5,Hrušč.,280  €/mēn.,,
Mangaļsala,Traleru 19,1,32,5/5,Specpr.,250  €/mēn.,57.0528275,24.06481233827122
Sarkandaugava,Limbažu 1A,1,15,1/2,P. kara,"12,480  €",57.0007997,24.1189743
Imanta,Slokas 195,2,37,2/5,LT proj.,"37,000  €",56.96237035,24.01677641136364
Purvciems,Varavīksnes g. 8,3,63,5/9,602.,500  €/mēn.,56.9521953,24.2048373
centrs,Ganu 3,2,54,2/3,Specpr.,230  €/mēn.,56.9619549,24.109404
Krasta r-ns,Salacas 1,1,32,2/4,Renov.,260  €/mēn.,,
Jugla,Ūdeļu 25,2,35,1/2,Specpr.,"45,000  €",56.9762925,24.262595045416777
Purvciems,Ieriķu 29,2,45,3/5,LT proj.,260  €/mēn.,56.96656155,24.177934
centrs,Maskavas 131,3,134,4/4,P. kara,"207,700  €",57.4025243,21.5704533
Ziepniekkalns,Līvciema 57,2,51,2/9,602.,"58,000  €",56.901309100000006,24.102314001078938
Vecmīlgrāvis,Vecmīlgrāvja 6,2,52,2/5,Specpr.,"34,920  €",57.0301964,24.1170336
Mežciems,Hipokrāta 11,1,46,2/16,104.,"41,000  €",56.9671489,24.23755090255275
Iļģuciems,Motoru 5,2,37,4/5,LT proj.,"29,000  €",56.9695545,24.066990643941864
Vecmīlgrāvis,Ledus 2,1,35,8/9,602.,"39,600  €",57.03751635,24.095659131119135
Ķengarags,Ķengaraga 6c,1,20,3/4,Specpr.,200  €/mēn.,56.91724875,24.167959715299368
Purvciems,Madonas 21,4,85,2/16,Specpr.,"72,900  €",56.96107275,24.17095887799285
Purvciems,Madonas 21,3,85,2/16,Specpr.,"72,900  €",56.96107275,24.17095887799285
Maskavas priekšpilsēta,Katoļu 31,2,84,6/7,Jaun.,"139,898  €",,
Āgenskalns,Smiļģa 23,1,26,2/3,P. kara,250  €/mēn.,56.939478,24.07809948486388
Āgenskalns,Mārupes 49,2,66,5/5,Specpr.,400  €/mēn.,56.92754185,24.076065951756213
centrs,Zirņu 6,2,42,6/6,Hrušč.,"47,000  €",,
Āgenskalns,Akmeņu 15,1,29,3/6,P. kara,"49,500  €",,
centrs,Klusā 20,1,20,7/10,Jaun.,25  €/dienā,,
Teika,Ūnijas 71,3,60,2/5,Specpr.,500  €/mēn.,56.9668334,24.1739325
centrs,Stabu 46/48,3,79,3/6,P. kara,"117,000  €",56.9543322,24.1313043698515
Ziepniekkalns,Irbenes 18,1,33,1/1,Priv. m.,260  €/mēn.,56.9135615,24.0873481
Stāvs:,- ,Sērija:103.104.119.467.602.Čehu pr.Hrušč.LT proj.M. ģim.P. karaPriv. m.Renov.Specpr.StaļinaJaun. ,Sērija,Cena,M. ģim.,"35,000  €",51.77014725,-1.2649910410071945
Stāvs:,- ,Sērija:103.104.119.467.602.Čehu pr.Hrušč.LT proj.M. ģim.P. karaPriv. m.Renov.Specpr.StaļinaJaun. ,Sērija,Cena,M. ģim.,"35,000  €",51.77014725,-1.2649910410071945
Dārzciems,Sitas 50,1,42,3/5,M. ģim.,"35,000  €",56.93319445,24.19388500816745
Jugla,Juglas 5,2,43,2/5,Hrušč.,"59,900  €",56.9895073,24.2483362
Imanta,Jūrmalas g. 99,2,50,2/9,602.,270  €/mēn.,56.9529998,24.0165749
Ķengarags,Maskavas 250/1,2,42,4/5,Hrušč.,"46,500  €",56.8997798,24.2039578
Ķengarags,Prūšu 3/3,3,60,1/5,LT proj.,"47,000  €",56.9154281,24.1804946
Maskavas priekšpilsēta,Kalupes 14,2,45,1/3,P. kara,340  €/mēn.,,
centrs,Barona 55,2,33,2/5,Renov.,"82,000  €",56.9565676,24.1315966
centrs,Stabu 61,4,117,3/5,Renov.,"210,000  €",56.9533511,24.1348825
centrs,Lugažu 13,1,30,1/3,P. kara,"24,000  €",,
centrs,Strēlnieku 4b,1,32,1/6,Jaun.,700  €/mēn.,56.9606608,24.110619826673936
centrs,Zvaigžņu 24,1,20,3/5,P. kara,280  €/mēn.,57.38170015,21.566050482202836
Maskavas priekšpilsēta,Ludzas 42,1,29,3/5,Hrušč.,230  €/mēn.,,
centrs,Tērbatas 82a,1,35,2/5,P. kara,"46,000  €",56.9608672,24.13805111738441
Ziepniekkalns,Līvciema 57,2,51,3/9,602.,"82,000  €",56.901309100000006,24.102314001078938
Zolitūde,Imantas 16. l. 7,2,61,7/9,119.,330  €/mēn.,56.943644,24.0069862
centrs,Dzirnavu 110A,3,55,3/5,P. kara,270  €/mēn.,56.94773845,24.124984679529128
Mežaparks,Lībekas 21,2,36,2/3,Renov.,"72,000  €",57.00238805,24.166636811923688
Ķengarags,Maskavas 421,2,45,5/5,LT proj.,"38,000  €",56.8994007,24.20832982701724
centrs,Elizabetes 12,4,181,4/5,Renov.,"724,800  €",56.9666475,23.1549372
centrs,Dzirnavu 113,3,65,3/5,P. kara,650  €/mēn.,56.9497335,24.1258382
centrs,Lāčplēša 68,3,93,6/6,Renov.,800  €/mēn.,56.9508814,24.1315182
centrs,Marijas 14a,2,34,5/6,Renov.,"82,320  €",56.9503578,24.1249375
Teika,Ropažu 46,2,56,1/3,Staļina,320  €/mēn.,56.9795593,24.1765343
Imanta,Anniņmuižas 38-2,2,68,7/18,Jaun.,"111,000  €",56.9573992,24.0237329
Āgenskalns,Mūkusalas 56,2,62,1/3,Renov.,"81,500  €",,
Purvciems,Dzelzavas 15,2,42,5/5,Hrušč.,320  €/mēn.,56.96279295,24.17122114848809
Iļģuciems,Vaidelotes 24,2,50,5/6,Hrušč.,"36,000  €",56.96600195,24.048942504493155
Ķengarags,Aviācijas 10,2,49,4/4,Specpr.,"29,800  €",56.90102465,24.20457917835229
centrs,Melngaiļa 2,4,153,3/7,Jaun.,"3,490  €/mēn.",56.9596689,24.11637227956693
centrs,Asara 9,2,62,2/7,Jaun.,"159,000  €",,
Stāvs:,- ,Sērija:103.104.119.467.602.Čehu pr.Hrušč.LT proj.M. ģim.P. karaPriv. m.Renov.Specpr.StaļinaJaun. ,Sērija,Cena,Jaun.,"86,900  €",51.77014725,-1.2649910410071945
Stāvs:,- ,Sērija:103.104.119.467.602.Čehu pr.Hrušč.LT proj.M. ģim.P. karaPriv. m.Renov.Specpr.StaļinaJaun. ,Sērija,Cena,Jaun.,"86,900  €",51.77014725,-1.2649910410071945
Torņakalns,Jelgavas 63,2,58,1/5,Jaun.,"86,900  €",56.9273343,24.09277970207552
Mežaparks,Lībekas 21,3,66,1/3,Renov.,"122,000  €",57.00238805,24.166636811923688
Jugla,Murjāņu 40,1,31,2/5,Hrušč.,"43,900  €",56.9782178,24.248685114741967
centrs,Valdemāra 73,3,60,6/6,P. kara,"135,000  €",56.9622133,24.1233217
Āgenskalns,Raņķa d. 31,2,50,4/4,Renov.,"89,136  €",56.9450949,24.0837011
Āgenskalns,Raņķa d. 31,2,43,1/4,Renov.,"78,048  €",56.9450949,24.0837011
centrs,Martas 9,4,96,4/5,P. kara,"209,000  €",56.955227,24.128670987508468
Ziepniekkalns,Valdeķu 53,3,77,10/10,119.,"65,000  €",56.9013186,24.0924634
Āgenskalns,Kalnciema 52,2,75,4/4,P. kara,550  €/mēn.,56.9413806,24.061447698161015
Daugavgrīva,Parādes 6,3,65,1/5,103.,250  €/mēn.,57.04142625,24.030446933931533
Sarkandaugava,Alekša 7,2,40,3/5,P. kara,240  €/mēn.,56.9929141,24.12524198732218
Āgenskalns,Ventspils 20,1,22,1/2,P. kara,"25,500  €",56.932427,24.061654099720663
centrs,Skanstes 29,2,70,11/24,Jaun.,"150,000  €",56.9627217,24.1133633
Imanta,Dammes 34,2,52,7/9,602.,"87,500  €",56.9649983,24.01057657265347
Daugavgrīva,Parādes 12,2,42,2/2,Hrušč.,"31,500  €",57.04058115,24.02864323735212
Ķengarags,Lokomotīves 30,2,51,2/2,Staļina,"44,000  €",56.91329585,24.19243950000001
Teika,Ķeguma 39,3,75,2/4,Jaun.,"192,500  €",56.966018250000005,24.19343315100701
centrs,Katrīnas d. 24 - K3,3,67,1/2,Staļina,"96,800  €",,
Imanta,Kurzemes pr. 156,2,51,7/9,602.,"59,500  €",,
Āgenskalns,Valentīna 16,3,72,1/3,Jaun.,700  €/mēn.,,
centrs,Birznieka-Upīša 10,3,75,5/5,Renov.,"199,900  €",56.9487525,24.1248249
centrs,Ēveles 6,2,70,2/8,Specpr.,"119,500  €",,
Sarkandaugava,Viestura pr. 33,2,47,9/9,Specpr.,"49,000  €",,
Teika,Ropažu 12,3,124,5/9,Jaun.,"241,800  €",56.9772589,24.16674835452536
Mežciems,Kaivas 31,3,106,1/4,Jaun.,950  €/mēn.,56.9571247,24.2475937
centrs,Upes 8,1,35,1/2,P. kara,250  €/mēn.,55.8616223,26.51195902517301
Āgenskalns,Smiļģa 23A,3,100,2/2,Priv. m.,"169,000  €",56.93919995,24.0781938981405
Stāvs:,- ,Sērija:103.104.119.467.602.Čehu pr.Hrušč.LT proj.M. ģim.P. karaPriv. m.Renov.Specpr.StaļinaJaun. ,Sērija,Cena,Jaun.,"170,000  €",51.77014725,-1.2649910410071945
Stāvs:,- ,Sērija:103.104.119.467.602.Čehu pr.Hrušč.LT proj.M. ģim.P. karaPriv. m.Renov.Specpr.StaļinaJaun. ,Sērija,Cena,Jaun.,"170,000  €",51.77014725,-1.2649910410071945
centrs,Čaka 134,2,76,4/6,Jaun.,"170,000  €",56.9513692,24.127201
Ķengarags,Ikšķiles 9,1,35,12/10,Čehu pr.,230  €/mēn.,56.90276915,24.20687335276829
Purvciems,Vaidavas 9,2,36,1/5,LT proj.,"41,200  €",56.9618126,24.177521935658103
Dārzciems,Nīcgales 46,2,54,4/5,Specpr.,"49,990  €",56.9458973,24.1712335
Mežciems,Mežciema 52,3,62,8/9,602.,"76,000  €",56.9733965,24.238988980894696
Āgenskalns,Tapešu 55,3,60,3/5,LT proj.,"47,000  €",56.9395479,24.0538948
Dzegužkalns,Tapešu 55,3,60,3/5,LT proj.,"47,000  €",,
Bolderāja,Lielupes 1,3,55,1/4,Hrušč.,"28,000  €",57.038622450000005,24.046476020514376
Ķengarags,Ikšķiles 16,3,59,1/5,LT proj.,"56,000  €",56.90257745,24.210065257205606
Imanta,Kleistu 21,2,51,2/9,602.,"75,500  €",56.96457975,24.02416819605095
Mežaparks,Ezermalas 2a,1,34,7/12,Čehu pr.,"51,500  €",56.9984019,24.1707634
Āgenskalns,Baložu 28,1,30,1/3,P. kara,200  €/mēn.,56.9479985,24.0700651
Purvciems,Dzelzavas 19,2,41,2/5,Hrušč.,320  €/mēn.,56.9620095,24.17275955965411
Pļavnieki,Slāvu 23,2,51,2/9,602.,"48,500  €",,
centrs,M. Matīsa 3,2,52,2/4,P. kara,"35,000  €",,
centrs,Stabu 29,3,95,4/6,P. kara,"162,000  €",56.9563842,24.12869599714608
centrs,Dzirnavu 70,3,83,5/5,P. kara,530  €/mēn.,56.95262605,24.121847756445337
centrs,Ausekļa 3,2,50,2/5,P. kara,450  €/mēn.,56.9600455,24.099762636653608
Jugla,Juglas 2E,4,129,3/7,Specpr.,480  €/mēn.,56.9887684,24.2452953
centrs,Marijas 14A,2,31,6/6,Renov.,"76,440  €",56.9503578,24.1249375
Purvciems,Vējavas 9c,4,110,4/4,Jaun.,"157,000  €",56.958955,24.17026729355616
Mežaparks,Viestura pr. 37,2,46,3/9,Specpr.,"36,500  €",,
Pļavnieki,Jasmuižas 18/1,3,76,4/9,Jaun.,"146,950  €",56.9378016,24.2143569
centrs,Barona 49,4,99,3/7,Renov.,"240,000  €",56.9558435,24.1302868
Teika,Biķernieku 6,2,46,2/5,Hrušč.,"45,950  €",56.97167975,24.1735472
centrs,Alūksnes 1,1,20,5/5,P. kara,325  €/mēn.,,
centrs,Bruņinieku 81,5,117,3/5,P. kara,580  €/mēn.,56.961172,24.1229335
centrs,Sadovņikova 37,2,50,5/5,P. kara,230  €/mēn.,,
centrs,Dzirnavu 113A,2,59,3/6,Renov.,430  €/mēn.,56.9497335,24.1258382
Stāvs:,- ,Sērija:103.104.119.467.602.Čehu pr.Hrušč.LT proj.M. ģim.P. karaPriv. m.Renov.Specpr.StaļinaJaun. ,Sērija,Cena,602.,"81,200  €",51.77014725,-1.2649910410071945
Stāvs:,- ,Sērija:103.104.119.467.602.Čehu pr.Hrušč.LT proj.M. ģim.P. karaPriv. m.Renov.Specpr.StaļinaJaun. ,Sērija,Cena,602.,"81,200  €",51.77014725,-1.2649910410071945
Purvciems,Žagatu 20A,4,76,9/9,602.,"81,200  €",56.96300185,24.18737805586649
Āgenskalns,Bāriņu 1B,1,22,3/4,M. ģim.,300  €/mēn.,56.9371842,24.07879342195534
Zolitūde,Ruses 14,2,61,5/9,119.,"60,000  €",56.9472328,24.00428119416181
Ķengarags,Rasas 30,2,50,1/5,LT proj.,"56,500  €",56.9041369,24.20719940307905
Ķengarags,Prūšu 21k2,1,18,2/4,M. ģim.,"20,000  €",56.9120328,24.19330828469377
centrs,Pērnavas 12,2,43,4/5,Hrušč.,350  €/mēn.,,
Sarkandaugava,Lāpstu 5,2,36,1/2,P. kara,"28,500  €",57.0017546,24.11932975
centrs,Miera 87,3,120,3/3,Renov.,"199,000  €",56.959904,24.1290166
Purvciems,Ūnijas 32A,1,22,2/2,Renov.,"19,500  €",56.9625569,24.1815831
Teika,Raunas 39,1,30,1/5,Hrušč.,210  €/mēn.,56.96815665,24.18065404135669
Maskavas priekšpilsēta,Maskavas 153A,1,23,4/5,P. kara,249  €/mēn.,,
Teika,Brīvības 241,3,61,1/5,Specpr.,"79,500  €",56.9773995,24.1795064
Teika,Zemgala 80,2,62,10/12,Jaun.,670  €/mēn.,56.9777452,24.16604241357143
centrs,Tallinas 86,2,45,3/5,Renov.,"119,000  €",56.95652115,24.147680900018845
Purvciems,Madonas 2,2,48,4/5,Jaun.,"93,000  €",56.95944105,24.16663604437773
Teika,Zemgala 80,2,62,10/12,Jaun.,"147,000  €",56.9777452,24.16604241357143
Purvciems,Dzelzavas 15/2,1,30,3/6,Hrušč.,"41,000  €",56.9542345,24.2065519
Āgenskalns,Mūkusalas 29,3,209,2/4,Jaun.,"1,800  €/mēn.",,
centrs,Lāčplēša 48,3,60,3/6,P. kara,550  €/mēn.,56.9525541,24.1284324
Purvciems,Dzelzavas 81,3,58,6/9,467.,"75,000  €",56.957137,24.201173391462103
Ziepniekkalns,Ozolciema 8,1,30,11/12,M. ģim.,"32,000  €",56.8989409,24.08338925773728
Vecmīlgrāvis,Emmas 3A,3,58,1/5,Specpr.,"39,900  €",57.02896975,24.106602271531305
Iļģuciems,Motoru 5,2,50,5/4,LT proj.,300  €/mēn.,56.9695545,24.066990643941864
Purvciems,Žagatu 20A,2,50,9/9,602.,380  €/mēn.,56.96300185,24.18737805586649
Pļavnieki,Deglava 156,2,50,8/9,602.,300  €/mēn.,56.9442109,24.21942626181466
centrs,Dzirnavu 37,Citi,1791,3/7,Jaun.,"2,476,650  €",56.95819605,24.114515031166665
centrs,Republikas laukums 3,3,103,4/7,Jaun.,"450,000  €",56.9555576,24.0996114
Pļavnieki,Jasmuižas 4,3,62,7/9,602.,"60,000  €",56.93733685,24.208136002969297
Stāvs:,- ,Sērija:103.104.119.467.602.Čehu pr.Hrušč.LT proj.M. ģim.P. karaPriv. m.Renov.Specpr.StaļinaJaun. ,Sērija,Cena,M. ģim.,"39,000  €",51.77014725,-1.2649910410071945
Stāvs:,- ,Sērija:103.104.119.467.602.Čehu pr.Hrušč.LT proj.M. ģim.P. karaPriv. m.Renov.Specpr.StaļinaJaun. ,Sērija,Cena,M. ģim.,"39,000  €",51.77014725,-1.2649910410071945
Pļavnieki,Lubānas 115,1,44,7/9,M. ģim.,"39,000  €",56.9411711,24.237357
Āgenskalns,Kristapa 26,2,46,5/5,Hrušč.,330  €/mēn.,56.94560915,24.068014401385486
Purvciems,Kalsnavas 1,3,61,9/6,602.,"61,000  €",56.9546319,24.17088585
Teika,Brīvības 314,2,50,2/4,P. kara,420  €/mēn.,56.9791638,24.1868967
Ķengarags,Prūšu 38,2,49,5/5,Hrušč.,"54,000  €",56.9110269,24.191909299999995
Vecmīlgrāvis,Melīdas 6/1,2,38,2/5,LT proj.,"38,000  €",57.0317008,24.1105633
centrs,Brīvības 73,3,88,4/4,P. kara,500  €/mēn.,56.9588872,24.1255199
centrs,Stabu 49a,3,80,1/6,Renov.,"103,040  €",56.954615,24.1323044
centrs,Hospitāļu 7,3,71,5/5,103.,"69,000  €",,
centrs,Vagonu 22,1,28,2/5,Renov.,33  €/dienā,,
Imanta,Slokas 134,3,61,1/9,602.,"57,500  €",56.96338525,24.0085406124131
Iļģuciems,Grīvas 9,2,42,5/6,Hrušč.,"30,000  €",56.9659757,24.05035945
centrs,Lāčplēša 35,5,132,1/6,Renov.,"168,071  €",55.8705787,26.5211781
Ķengarags,Bultu 2,3,63,3/5,Jaun.,"195,000  €",56.9068471,24.191013064024013
Aplokciems,Krapes 8,2,45,2/3,Jaun.,550  €/mēn.,57.0235282,24.1445824
Zolitūde,Bieziņa 9,1,46,4/9,119.,350  €/mēn.,56.94541315,24.021306875451987
Purvciems,Deglava 61,3,101,5/10,Jaun.,"185,000  €",56.9518031,24.165962
centrs,Lienes 12,2,48,2/5,P. kara,400  €/mēn.,,
centrs,Citadeles 6,3,95,3/3,Jaun.,"1,300  €/mēn.",56.9541423,24.101194963361763
centrs,Bruņinieku 28,3,80,6/6,P. kara,"1,000  €/mēn.",56.9559254,24.1318982
Ziepniekkalns,M. Stērstu 4,3,72,1/4,Jaun.,"170,000  €",,
Āgenskalns,Kalnciema 114,1,34,3/5,Hrušč.,"35,000  €",56.9453372,24.0731765
Purvciems,Dudajeva g. 3,3,66,1/5,LT proj.,"58,000  €",56.9575254,24.1942844
centrs,Stabu 46/48,2,52,6/6,P. kara,"89,000  €",56.9543322,24.1313043698515
centrs,Laboratorijas 5,3,62,1/3,Jaun.,"144,800  €",,
centrs,Laboratorijas 5,3,70,2/2,Jaun.,"164,800  €",,
Imanta,Kurzemes pr. 122,3,64,5/9,602.,55  €/dienā,56.9523843,24.0351851
centrs,Bruņinieku 79,2,34,1/2,P. kara,"53,000  €",56.9523491,24.13954190857615
Ķengarags,Maskavas 256,1,31,5/5,LT proj.,"29,000  €",56.9102534,24.17626616769989
Stāvs:,- ,Sērija:103.104.119.467.602.Čehu pr.Hrušč.LT proj.M. ģim.P. karaPriv. m.Renov.Specpr.StaļinaJaun. ,Sērija,Cena,Čehu pr.,"77,000  €",51.77014725,-1.2649910410071945
Stāvs:,- ,Sērija:103.104.119.467.602.Čehu pr.Hrušč.LT proj.M. ģim.P. karaPriv. m.Renov.Specpr.StaļinaJaun. ,Sērija,Cena,Čehu pr.,"77,000  €",51.77014725,-1.2649910410071945
Imanta,Rigondas g. 3,4,79,2/12,Čehu pr.,"77,000  €",56.9648381,24.0191151
Mežciems,Mežciema 23,1,49,2/16,104.,200  €/mēn.,56.971605,24.2340818
centrs,Valdemāra 73,5,132,6/6,P. kara,"290,000  €",56.9622133,24.1233217
Ziepniekkalns,Ozolciema 8,1,28,5/12,Specpr.,"33,500  €",56.8989409,24.08338925773728
Jugla,Brīvības 358,2,54,4/4,Staļina,330  €/mēn.,56.9907911,24.2466615
Teika,Ropažu 93,2,27,1/2,P. kara,"29,500  €",56.9825039,24.19176930406028
Ziepniekkalns,Bikstu 6,3,109,1/6,Jaun.,"140,000  €",56.9081142,24.0842045
Iļģuciems,Dzirciema 31,1,32,1/12,Specpr.,"43,800  €",56.9654495,24.0569372
centrs,Sadovņikova 21,4,92,4/4,Renov.,"130,000  €",,
Āgenskalns,Kristapa 12,1,30,1/5,Hrušč.,230  €/mēn.,56.9437257,24.061830277573904
centrs,Valdemāra 72,5,107,3/4,P. kara,"156,000  €",56.9681719,24.13205067408257
Āgenskalns,Raņķa d. 34,3,91,11/22,Jaun.,"285,000  €",56.9450949,24.0837011
Āgenskalns,Raņķa d. 34,3,80,8/22,Jaun.,"203,000  €",56.9450949,24.0837011
Jugla,Brīvības 449,2,67,1/2,Staļina,"56,500  €",56.9907911,24.2466615
Iļģuciems,Dzirciema 61,3,62,8/9,467.,"54,000  €",56.96331115,24.05423811540512
Torņakalns,Olīvu 5,1,22,2/3,Renov.,320  €/mēn.,56.9245862,24.087002604527846
Jugla,Juglas 2E,3,124,7/9,Specpr.,"140,000  €",56.9887684,24.2452953
Berģi,Brīvības 449,2,67,1/2,Staļina,"56,500  €",56.9959179,24.2634877
Āgenskalns,Ventspils 63c,3,28,2/3,Jaun.,360  €/mēn.,56.9336763,24.0691686
Āgenskalns,Ventspils 63c,1,22,3/3,Jaun.,325  €/mēn.,56.9336763,24.0691686
Berģi,Brīvības 449,2,67,2/2,Staļina,"51,300  €",56.9959179,24.2634877
Jugla,Brīvības 449,2,67,2/2,Staļina,"51,300  €",56.9907911,24.2466615
Berģi,Brīvības 446,4,186,3/3,Jaun.,"350,000  €",56.9959179,24.2634877
Āgenskalns,Ventspils 63c,1,16,1/3,Jaun.,415  €/dienā,56.9336763,24.0691686
Zolitūde,Anniņmuižas 6,3,75,13/16,104.,"92,000  €",56.9464124,24.01023954317724
Iļģuciems,Lilijas 8,2,39,5/5,LT proj.,"42,500  €",56.9650304,24.06595852563904
centrs,Ģertrūdes 60,3,89,2/6,P. kara,350  €/mēn.,56.951654,24.1326885
Purvciems,Vaidavas 2,2,41,5/5,Hrušč.,"44,900  €",56.9651158,24.17605013260422
Sarkandaugava,Viestura pr. 120,1,30,3/3,Renov.,220  €/mēn.,,
Iļģuciems,Dzirciema 89,2,48,3/5,LT proj.,"49,000  €",56.9671678,24.056959682256256
Stāvs:,- ,Sērija:103.104.119.467.602.Čehu pr.Hrušč.LT proj.M. ģim.P. karaPriv. m.Renov.Specpr.StaļinaJaun. ,Sērija,Cena,P. kara,420  €/mēn.,51.77014725,-1.2649910410071945
Stāvs:,- ,Sērija:103.104.119.467.602.Čehu pr.Hrušč.LT proj.M. ģim.P. karaPriv. m.Renov.Specpr.StaļinaJaun. ,Sērija,Cena,P. kara,420  €/mēn.,51.77014725,-1.2649910410071945
centrs,Maskavas 56,3,65,5/5,P. kara,420  €/mēn.,57.4025243,21.5704533
Sarkandaugava,Hāpsalas 12,1,23,1/3,Renov.,200  €/mēn.,57.0001777,24.1220278
Jugla,Brīvības 367,2,46,4/5,Hrušč.,"67,000  €",56.9878569,24.21971367934781
Mangaļi,Ezera 18,1,30,3/3,Renov.,220  €/mēn.,,
centrs,Maisa 19,3,77,4/5,P. kara,"117,000  €",,
Purvciems,Ilūkstes 32,3,79,3/9,119.,"82,700  €",56.9493874,24.1970802
Ķengarags,Maskavas 423,2,44,1/5,LT proj.,"48,000  €",56.89988695,24.209253200000006
Ķengarags,Kaņiera 4a,2,39,2/5,LT proj.,"42,000  €",56.91471065,24.17255164290825
centrs,Barona 15,3,73,5/6,Renov.,"1,124  €/mēn.",56.9521532,24.1228046
Dārziņi,Jāņogu 73,1,45,1/2,P. kara,"20,000  €",56.86542915,24.25742002647458
Ķengarags,Aglonas 31,1,31,2/5,Hrušč.,"29,000  €",56.9127093,24.184851050467408
centrs,Brīvības 95,2,48,1/7,Renov.,500  €/mēn.,56.96131475,24.131717044166592
Purvciems,Dzelzavas 19,2,73,6/6,Jaun.,600  €/mēn.,56.9620095,24.17275955965411
Pļavnieki,Ilūkstes 99,2,54,15/17,Specpr.,"51,000  €",56.9472302,24.1946972
centrs,Valdemāra 89,3,85,5/5,P. kara,"150,000  €",56.96383885,24.12586466791548
Ķengarags,Krustpils 24,1,12,3/3,M. ģim.,"16,500  €",,
Bolderāja,Finiera 23,2,53,4/5,103.,"45,000  €",57.02753815,24.05440249532691
Pļavnieki,Ilūkstes 12,1,31,5/6,602.,"32,000  €",56.93717765,24.19580517644372
centrs,Cēsu 13,1,25,1/2,P. kara,"31,500  €",56.9633315,24.1364109
Purvciems,Staiceles 19,1,30,5/5,LT proj.,200  €/mēn.,56.95720875,24.17357627586922
Ziepniekkalns,Bērzlapu 2,2,49,14/16,104.,"59,800  €",56.9052096,24.084553450861744
centrs,Ģertrūdes 91,3,82,2/5,P. kara,"145,000  €",56.9582121,24.1213972
Maskavas priekšpilsēta,Maskavas 85,2,59,3/5,Renov.,"99,800  €",,
centrs,Vidus 11,3,119,2/5,Renov.,"365,000  €",56.9615303,24.10291659587181
centrs,Dzirnavu 13,3,75,3/4,Specpr.,750  €/mēn.,56.96075425,24.10904625
Jugla,Murjāņu 38,2,47,2/5,Hrušč.,"54,000  €",56.97808055,24.247249000000004
Purvciems,Mārcienas 2,4,94,8/9,119.,"118,800  €",56.95482635,24.16659158466366
centrs,Ģertrūdes 60,2,59,5/6,P. kara,300  €/mēn.,56.951654,24.1326885
Maskavas priekšpilsēta,Maskavas 85,2,56,3/5,Renov.,"94,800  €",,
Stāvs:,- ,Sērija:103.104.119.467.602.Čehu pr.Hrušč.LT proj.M. ģim.P. karaPriv. m.Renov.Specpr.StaļinaJaun. ,Sērija,Cena,P. kara,"84,149  €",51.77014725,-1.2649910410071945
Stāvs:,- ,Sērija:103.104.119.467.602.Čehu pr.Hrušč.LT proj.M. ģim.P. karaPriv. m.Renov.Specpr.StaļinaJaun. ,Sērija,Cena,P. kara,"84,149  €",51.77014725,-1.2649910410071945
centrs,Avotu 7,2,51,5/5,P. kara,"84,149  €",57.39384895,21.552568526900583
Vecmīlgrāvis,Vecmīlgrāvja 8,2,55,5/5,Hrušč.,"55,000  €",57.0307397,24.1171126
centrs,Sadovņikova 39,1,25,2/7,Renov.,280  €/mēn.,,
Ķengarags,Maskavas 268,1,35,5/5,Hrušč.,"38,000  €",56.90549305,24.18688131314538
Vecmīlgrāvis,Staru 15,2,50,4/5,LT proj.,"35,000  €",57.03286945,24.101096724268672
centrs,Maskavas 85,2,59,3/5,Renov.,"99,800  €",57.4025243,21.5704533
centrs,Dzirnavu 53,3,107,2/6,P. kara,"278,000  €",56.9565341,24.1171801
Bolderāja,Dolomīta 4,2,46,1/5,Hrušč.,"32,999  €",57.0261116,24.038598783164552
centrs,Martas 7,2,70,2/7,Specpr.,"208,600  €",56.9553717,24.1281063609436
centrs,Maskavas 85,2,56,3/5,Renov.,"94,800  €",57.4025243,21.5704533
Mežciems,Biķernieku 278,4,134,2/2,Jaun.,"165,000  €",56.9599931,24.2286894
Āgenskalns,Gregora 4,3,61,3/5,LT proj.,"75,000  €",,
Purvciems,Dzelzavas 68,2,50,5/16,Jaun.,"96,000  €",56.9565554,24.1866839
Mežciems,Biķernieku 230,1,39,2/5,103.,"27,500  €",56.9599931,24.2286894
Imanta,Slokas 199,2,49,5/9,602.,350  €/mēn.,56.963222,24.014873192802177
Ķengarags,Glūdas 2,1,31,1/5,Hrušč.,"40,900  €",56.91129605,24.17345340573277
Ķengarags,Prūšu 11,2,47,5/5,Specpr.,"45,000  €",56.91416455,24.18728847131392
Imanta,Kurzemes pr. 42,2,38,1/5,LT proj.,280  €/mēn.,,
Šampēteris-Pleskodāle,Ulmaņa g. 101,4,87,2/5,Jaun.,"265,000  €",,
centrs,Rūpniecības 13/15,3,118,1/5,P. kara,"365,000  €",56.9576475,23.1600363
Vecrīga,Vāgnera 16,3,97,2/3,P. kara,"249,000  €",56.9486094,24.11191593141932
centrs,Barona 6,2,36,2/5,Renov.,699  €/mēn.,56.9499451,24.119208171864305
Jugla,Juglas krastm. 1A,4,134,2/2,Jaun.,"165,000  €",,
centrs,Pulkv. Brieža 43,2,82,3/3,Renov.,"192,000  €",,
Purvciems,Viršu 1,2,58,1/9,119.,"55,000  €",56.95277615,24.176513679515224
Maskavas priekšpilsēta,Daugavpils 48,1,24,5/6,P. kara,"29,500  €",,
Sarkandaugava,Tvaika 54k2,1,29,3/5,Hrušč.,"32,000  €",57.00806935,24.123749323750808
Maskavas priekšpilsēta,Rēznas 7,2,44,5/5,Hrušč.,"34,900  €",,
Pļavnieki,Dravnieku 3,3,66,5/10,Jaun.,"141,573  €",56.9444422,24.2106569
Ķengarags,Lokomotīves 60,3,54,1/5,LT proj.,"53,500  €",56.90699225,24.203614263282372
Stāvs:,- ,Sērija:103.104.119.467.602.Čehu pr.Hrušč.LT proj.M. ģim.P. karaPriv. m.Renov.Specpr.StaļinaJaun. ,Sērija,Cena,Jaun.,750  €/mēn.,51.77014725,-1.2649910410071945
Stāvs:,- ,Sērija:103.104.119.467.602.Čehu pr.Hrušč.LT proj.M. ģim.P. karaPriv. m.Renov.Specpr.StaļinaJaun. ,Sērija,Cena,Jaun.,750  €/mēn.,51.77014725,-1.2649910410071945
centrs,Tomsona 30,3,83,4/7,Jaun.,750  €/mēn.,56.9665863,24.1282258
Teika,Ūnijas 24,3,68,4/7,103.,"92,000  €",56.9673959,24.170968961354586
Mežciems,Hipokrāta 45,2,53,7/9,602.,220  €/mēn.,56.96054675,24.236016453218987
Purvciems,Dzelzavas 15,1,32,4/5,Hrušč.,350  €/mēn.,56.96279295,24.17122114848809
Pļavnieki,Dravnieku 2,1,45,3/9,104.,270  €/mēn.,56.9435605,24.20992315
Āgenskalns,Liepājas 78c,1,48,3/4,Jaun.,"79,800  €",56.9318783,24.0712635
Pļavnieki,Saharova 15,2,53,12/12,104.,"50,800  €",56.93679455,24.20183697226337
centrs,Ģertrūdes 37,5,120,4/5,P. kara,650  €/mēn.,56.9549482,24.127469977868387
centrs,Vidus 2,3,69,4/5,P. kara,"175,000  €",56.9613279,24.1011677
Āgenskalns,Elvīras 13b,2,47,4/5,LT proj.,"50,800  €",,
Daugavgrīva,Zvīņu 6,3,58,5/5,Hrušč.,"40,000  €",57.0374654,24.0247952
centrs,Lāčplēša 51,4,110,4/6,P. kara,850  €/mēn.,56.9524456,24.1295058
centrs,Ģertrūdes 105 k-1,5,190,7/7,Specpr.,"220,000  €",56.9563739,24.1245492
Ķengarags,Lokomotīves 52,1,34,6/12,Čehu pr.,"30,000  €",56.9081303,24.20186153910369
Pļavnieki,Deglava 106\1,3,79,3/9,119.,"69,000  €",56.9449622,24.2172449
Maskavas priekšpilsēta,Krāslavas 22,1,24,4/5,Renov.,300  €/mēn.,,
centrs,Tallinas 70,1,28,3/5,P. kara,25  €/dienā,56.9578128,24.1457991
Ziepniekkalns,Bērzupes 13,1,31,3/5,Hrušč.,380  €/mēn.,56.91654005,24.092825
Teika,Laimdotas 38,4,90,3/4,Jaun.,"241,000  €",56.9668863,24.1853874
Teika,Ūnijas 24,3,68,4/7,103.,"91,950  €",56.9673959,24.170968961354586
Bolderāja,Finiera 9,2,56,5/5,103.,"54,000  €",57.0275458,24.05071363475914
Grīziņkalns,Vārnu 16,2,46,5/5,103.,"75,000  €",56.95902825,24.15048731913034
Teika,Laimdotas 38,3,67,2/4,Jaun.,"182,800  €",56.9668863,24.1853874
Pļavnieki,Ulbrokas 12 k2,2,80,5/8,Jaun.,"150,000  €",56.9411911,24.21941785294508
Teika,Ropažu 22,1,30,5/5,Hrušč.,300  €/mēn.,56.9776761,24.1719745
centrs,Rūpniecības 11,2,75,4/6,Renov.,"1,100  €/mēn.",56.9608302,24.1030076
Vecmīlgrāvis,Ledus 2,3,63,1/9,602.,"56,000  €",57.03751635,24.095659131119135
Imanta,Kleistu 11,3,72,4/15,Jaun.,"169,500  €",56.96325465,24.02210360870407
Purvciems,Vaidavas 17,3,59,1/5,LT proj.,"52,500  €",56.960791400000005,24.176034466421825
Iļģuciems,Dzirciema 70,1,31,3/5,Hrušč.,"25,900  €",56.96629975,24.05803806717441
Stāvs:,- ,Sērija:103.104.119.467.602.Čehu pr.Hrušč.LT proj.M. ģim.P. karaPriv. m.Renov.Specpr.StaļinaJaun. ,Sērija,Cena,P. kara,"17,500  €",51.77014725,-1.2649910410071945
Stāvs:,- ,Sērija:103.104.119.467.602.Čehu pr.Hrušč.LT proj.M. ģim.P. karaPriv. m.Renov.Specpr.StaļinaJaun. ,Sērija,Cena,P. kara,"17,500  €",51.77014725,-1.2649910410071945
Torņakalns,Jelgavas 52b,1,20,1/2,P. kara,"17,500  €",56.929317350000005,24.09593971455664
Sarkandaugava,Sarkandaugavas 5,2,45,1/5,Specpr.,"49,000  €",56.99761095,24.123248326350968
Imanta,Dammes 6,2,50,4/9,602.,30  €/dienā,56.9617404,24.01463226753346
Purvciems,Zvaigznāja g. 1,3,68,3/5,LT proj.,"81,700  €",56.9528067,24.2062064
Mežaparks,Lībekas 21,4,98,3/3,Renov.,"175,000  €",57.00238805,24.166636811923688
centrs,Tallinas 79,2,69,1/5,P. kara,"95,000  €",56.9570023,24.14795128739946
Maskavas priekšpilsēta,Ludzas 42 k-2,1,30,5/5,Hrušč.,"29,820  €",,
Pļavnieki,Deglava 122,4,94,9/9,119.,"110,000  €",56.94697085,24.198139382185417
Purvciems,Deglava 122,4,94,9/9,119.,"110,000  €",56.9518031,24.165962
Purvciems,Nīcgales 4,3,61,5/9,602.,"72,000  €",56.95855125,24.175387470071428
Ķengarags,Bultu 3,2,50,9/9,467.,"46,000  €",56.9078304,24.19045705057927
Pļavnieki,Rudens 8,3,62,1/9,602.,"55,000  €",56.937662,24.19829488500103
Vecmīlgrāvis,Stiebru 3,1,42,1/5,M. ģim.,"23,000  €",57.03437255,24.094572182456588
Purvciems,Pūces 45,2,82,1/9,Jaun.,"138,000  €",56.9527733,24.190820384773847
Purvciems,Purvciema 20,2,61,9/9,119.,"82,000  €",56.95319905,24.170301062500045
Imanta,Slokas 187,2,50,4/9,602.,"50,000  €",56.96226365,24.01830471385544
Teika,Raunas 35/3,2,50,4/5,Specpr.,"46,000  €",56.9699511,24.1714582
Purvciems,Kastrānes 1/2,1,26,3/5,Renov.,"69,000  €",56.9659974,24.1766569
Purvciems,Raunas 35/3,2,50,4/5,Specpr.,"46,000  €",,
centrs,Baznīcas 26A,3,98,6/6,Renov.,800  €/mēn.,56.9585108,24.122897820107795
Krasta r-ns,Maskavas 188,1,34,8/2,Jaun.,380  €/mēn.,,
centrs,Stabu 62,2,47,1/4,P. kara,"94,000  €",56.9528546,24.1352223
Pļavnieki,Kaudzīšu 24,1,32,1/9,602.,"32,500  €",56.939745,24.204337
Ķengarags,Ķengaraga 5,1,30,4/5,LT proj.,"36,500  €",56.916055400000005,24.16974215241804
centrs,Rūpniecības 21,3,95,3/7,Jaun.,900  €/mēn.,56.9660465,24.1019662
Teika,Brīvības 236,2,60,5/5,Specpr.,"79,000  €",56.9738101,24.170066589282133
Stāvs:,- ,Sērija:103.104.119.467.602.Čehu pr.Hrušč.LT proj.M. ģim.P. karaPriv. m.Renov.Specpr.StaļinaJaun. ,Sērija,Cena,Specpr.,250  €/mēn.,51.77014725,-1.2649910410071945
Stāvs:,- ,Sērija:103.104.119.467.602.Čehu pr.Hrušč.LT proj.M. ģim.P. karaPriv. m.Renov.Specpr.StaļinaJaun. ,Sērija,Cena,Specpr.,250  €/mēn.,51.77014725,-1.2649910410071945
Šampēteris-Pleskodāle,Ventspils 65,2,30,3/3,Specpr.,250  €/mēn.,56.9352208,24.0425416
centrs,Avotu 22,2,63,3/5,P. kara,"117,000  €",56.9647377,23.1550558
centrs,Katrīnas d. 16A,2,37,2/5,Hrušč.,"49,800  €",57.3961035,21.5695761
Teika,Biķernieku 35,1,26,2/2,P. kara,250  €/mēn.,56.9707968,24.176503563556604
Imanta,Dammes 30,3,66,3/5,LT proj.,"55,900  €",56.9653262,24.011869486161416
Teika,Ūnijas 30,2,54,5/5,Specpr.,"76,450  €",56.96702145,24.17228684552264
Purvciems,Andromedas g. 5,1,28,5/5,LT proj.,"30,000  €",56.9604406,24.1986457
centrs,Vāgnera 16,3,97,2/3,P. kara,"249,000  €",,
Mežciems,Malienas 1k-2,3,158,1/4,Jaun.,"315,000  €",56.9747477,24.228160456868665
centrs,Republikas laukums 3,3,107,5/6,Jaun.,"348,000  €",56.9555576,24.0996114
centrs,Dzirnavu 10,3,88,3/5,P. kara,"195,000  €",56.9609418,24.10796360617932
centrs,Piena 4,2,45,2/4,Renov.,"104,190  €",,
centrs,Piena 4,2,45,2/4,Renov.,"103,270  €",,
centrs,Katrīnas d. 6,2,56,2/2,Renov.,"128,110  €",57.3961035,21.5695761
centrs,Tomsona 25,2,41,5/5,Hrušč.,"59,500  €",56.9659839,24.1258447
centrs,Brīvības 110,5,124,4/6,P. kara,720  €/mēn.,56.9615596,24.134123
Purvciems,Braslas 53,2,49,1/6,Jaun.,"87,000  €",56.95747179999999,24.16698908820361
centrs,Brīvības 148,2,58,2/5,P. kara,"75,000  €",56.9537963,24.117328
Jugla,Veldres 5,2,45,1/5,LT proj.,270  €/mēn.,56.9773867,24.24515555
Čiekurkalns,Inčukalna 2,2,47,2/5,Renov.,"109,000  €",,
Stāvs:,- ,Sērija:103.104.119.467.602.Čehu pr.Hrušč.LT proj.M. ģim.P. karaPriv. m.Renov.Specpr.StaļinaJaun. ,Sērija,Cena,Jaun.,"239,860  €",51.77014725,-1.2649910410071945
Stāvs:,- ,Sērija:103.104.119.467.602.Čehu pr.Hrušč.LT proj.M. ģim.P. karaPriv. m.Renov.Specpr.StaļinaJaun. ,Sērija,Cena,Jaun.,"239,860  €",51.77014725,-1.2649910410071945
centrs,Birznieka-Upīša 20A,4,131,5/7,Jaun.,"239,860  €",56.9487525,24.1248249
Šampēteris-Pleskodāle,Irlavas 12,2,54,1/5,104.,"58,000  €",56.9403406,24.0350842
centrs,Brīvības 179,2,39,6/6,Renov.,360  €/mēn.,56.9537963,24.117328
Āgenskalns,Alīses 10,2,46,3/5,Hrušč.,"79,000  €",56.9470505,24.06595997447654
Imanta,Slokas 195,2,51,3/5,LT proj.,"45,500  €",56.96237035,24.01677641136364
Jugla,Silciema 13,3,56,1/5,LT proj.,"46,900  €",56.98601545,24.23942087217935
Mežaparks,Inčukalna 2,4,84,2/5,Renov.,"199,000  €",56.9960407,24.14246281831603
Pļavnieki,Pļavnieku 2d,1,46,5/12,104.,"39,000  €",56.94172435,24.208586960998204
Sarkandaugava,Viestura pr. 37,2,46,3/9,Specpr.,"36,500  €",,
centrs,Rūpniecības 22,3,100,7/7,Specpr.,"1,200  €/mēn.",56.961440800000005,24.10364513737165
Mežciems,Kaivas 31/3,2,60,3/4,Jaun.,500  €/mēn.,56.9571247,24.2475937
Sarkandaugava,Patversmes 3/1,1,43,6/6,M. ģim.,"31,000  €",56.990941,24.1329725
Mežaparks,Inčukalna 2,2,47,2/5,Renov.,"109,000  €",56.9960407,24.14246281831603
centrs,Elijas 5,5,105,2/5,P. kara,"139,000  €",,
Dzegužkalns,Purva 5,4,124,3/3,Jaun.,"175,800  €",,
Mežciems,Kaivas 50/5,2,53,3/5,Jaun.,450  €/mēn.,56.9571247,24.2475937
Vecmīlgrāvis,Kalngales 6,2,52,2/9,602.,"46,600  €",57.0391219,24.10282369160808
Purvciems,Kastrānes 1,1,16,1/5,Renov.,"25,700  €",56.9659974,24.1766569
Ķengarags,Salaspils 6,1,31,2/2,LT proj.,"40,000  €",56.9224989,24.1797086
Sarkandaugava,Ziemeļu 3,3,78,1/6,Renov.,"99,800  €",56.999203300000005,24.11881692500331
Ziepniekkalns,Ziepniekkalna 64/1,2,71,1/5,Jaun.,"125,000  €",56.901134,24.133145
Sarkandaugava,Viestura pr. 97,2,45,8/9,Specpr.,"40,000  €",,
Jugla,Murjāņu 48,2,45,2/5,LT proj.,"38,900  €",56.9777671,24.250166840644773
Mežaparks,Viestura pr. 97,2,45,8/9,Specpr.,"40,000  €",,
centrs,Matīsa 80,1,25,3/6,P. kara,280  €/mēn.,56.9564621,24.134618
Purvciems,Žagatu 6,3,98,7/9,Jaun.,700  €/mēn.,56.964910450000005,24.18440476903595
centrs,Akas 2,3,61,4/4,P. kara,"95,000  €",56.9557572,24.1237349
Pļavnieki,J. Vācieša 4,2,51,8/9,602.,310  €/mēn.,,
Purvciems,Purvciema 53,1,42,8/9,M. ģim.,"36,900  €",56.9543059,24.17911070525553
Stāvs:,- ,Sērija:103.104.119.467.602.Čehu pr.Hrušč.LT proj.M. ģim.P. karaPriv. m.Renov.Specpr.StaļinaJaun. ,Sērija,Cena,P. kara,"87,285  €",51.77014725,-1.2649910410071945
Stāvs:,- ,Sērija:103.104.119.467.602.Čehu pr.Hrušč.LT proj.M. ģim.P. karaPriv. m.Renov.Specpr.StaļinaJaun. ,Sērija,Cena,P. kara,"87,285  €",51.77014725,-1.2649910410071945
centrs,Tallinas 79,2,69,1/5,P. kara,"87,285  €",56.9570023,24.14795128739946
Imanta,Kleistu 11,4,180,16/16,Jaun.,"1,200  €/mēn.",56.96325465,24.02210360870407
Pļavnieki,Rembates 8,3,77,3/10,Jaun.,800  €/mēn.,56.94077425,24.230074618165425
Jugla,Pāles 11,1,32,1/2,Jaun.,400  €/mēn.,56.9861877,24.245519555
centrs,Brīvības 46,5,180,4/6,Renov.,"2,950  €/mēn.",56.9553029,24.1198413
centrs,Brīvības 99a,2,32,4/5,P. kara,"48,000  €",56.9614481,24.1323024
centrs,Blaumaņa 5,5,117,1/5,Renov.,900  €/mēn.,56.9550369,24.1223636
Torņakalns,Bauskas 29k2,2,100,6/5,103.,"120,000  €",56.921327,24.09535874455335
Purvciems,Dzelzavas 37,4,74,1/9,602.,"58,500  €",56.95922675,24.182087016206157
Imanta,Kurzemes pr. 106,3,63,9/9,602.,"68,500  €",56.9573979,24.0351632
Ķengarags,Aviācijas 6,2,56,1/3,Staļina,"59,000  €",56.90202975,24.20330240000001
Mežciems,Hipokrāta 17,2,53,9/9,602.,370  €/mēn.,56.96614445,24.23733730225384
Āgenskalns,Altonavas 22,1,23,2/2,P. kara,"23,900  €",,
Āgenskalns,Altonavas 22,1,20,2/2,P. kara,"23,500  €",,
Zolitūde,Bieziņa 3,2,56,9/10,119.,"48,000  €",56.94454465,24.01739264995262
Iļģuciems,Buļļu 42a,1,44,7/9,104.,"39,000  €",56.9682471,24.0497274
Čiekurkalns,Čiekurkalna 1. šķ. l. ,3,91,1/1,Renov.,385  €/mēn.,,
Purvciems,Dzelzavas 37,2,49,3/9,602.,"46,500  €",56.95922675,24.182087016206157
centrs,Pētersalas 11,2,58,3/4,Staļina,550  €/mēn.,,
centrs,Pētersalas 11,2,58,3/4,Staļina,"140,000  €",,
Pļavnieki,Tīnūžu 14,3,63,7/9,602.,"62,000  €",56.93408535,24.20825948017022
Purvciems,Viršu 4,2,60,4/12,104.,"64,900  €",56.952352000000005,24.179609624266007
Purvciems,Ieriķu 60,3,61,3/9,Specpr.,400  €/mēn.,56.96518825,24.18607691219764
Krasta r-ns,Maskavas 267A,3,60,1/5,LT proj.,"50,000  €",,
Iļģuciems,Dzirciema 61,2,48,8/9,467.,"56,500  €",56.96331115,24.05423811540512
centrs,Tallinas 57,2,52,2/3,P. kara,"53,000  €",56.9606081,24.14135246209069
centrs,Tallinas 57 k-1,2,47,2/3,P. kara,"45,900  €",56.9604177,24.14166064868572
centrs,Tomsona 2,3,113,1/6,P. kara,"165,000  €",56.96346405,24.12405597786933
Krasta r-ns,Salacas 26,2,29,2/2,Renov.,"43,000  €",,
Ķengarags,Maskavas 256,2,44,3/5,Hrušč.,"40,000  €",56.9102534,24.17626616769989
Stāvs:,- ,Sērija:103.104.119.467.602.Čehu pr.Hrušč.LT proj.M. ģim.P. karaPriv. m.Renov.Specpr.StaļinaJaun. ,Sērija,Cena,Renov.,"36,759  €",51.77014725,-1.2649910410071945
Stāvs:,- ,Sērija:103.104.119.467.602.Čehu pr.Hrušč.LT proj.M. ģim.P. karaPriv. m.Renov.Specpr.StaļinaJaun. ,Sērija,Cena,Renov.,"36,759  €",51.77014725,-1.2649910410071945
Krasta r-ns,Salacas 26,2,25,1/2,Renov.,"36,759  €",,
Teika,Palmu 7,3,80,2/9,Specpr.,"88,500  €",56.979271,24.18067963870989
Pļavnieki,Pavasara g. 6,3,64,7/9,602.,"72,000  €",56.9346184,24.198101
centrs,Tallinas 77,1,34,2/5,Renov.,35  €/dienā,56.9573928,24.147415786427946
Ķengarags,Ikšķiles 11,2,50,5/5,LT proj.,"38,500  €",56.90356345,24.20637898010604
Ķengarags,Krustpils 75 k-1,2,50,1/2,Specpr.,"34,500  €",,
Zasulauks,Vecā Jūrmalas g. 1b,1,36,8/12,Čehu pr.,"45,000  €",56.9511873,24.0464082
Purvciems,Purvciema 40,1,40,3/5,M. ģim.,"30,000  €",56.9533911,24.175018
Ķengarags,Maskavas 411,1,31,3/5,LT proj.,320  €/mēn.,56.89990005,24.20486065
Imanta,M. Krūmu 10,3,63,9/9,602.,"62,000  €",,
Jugla,Vangažu 7,1,43,2/12,Specpr.,200  €/mēn.,56.9871937,24.2275114
Ķengarags,Višķu 13,1,32,2/5,LT proj.,"37,500  €",56.8999122,24.212410100000007
Purvciems,Stirnu 39,3,60,4/5,LT proj.,"69,300  €",56.961021,24.188230924482184
Jugla,Murjāņu 56,3,59,3/5,LT proj.,"53,000  €",56.97781945,24.25242755000004
Purvciems,Dudajeva g. 5,2,54,5/5,LT proj.,"56,000  €",56.9575254,24.1942844
Jugla,Salamandras 8,3,63,2/2,P. kara,"70,000  €",56.992751,24.230124898383536
Pļavnieki,Zebiekstes 3,2,62,4/9,119.,"65,000  €",,
centrs,Elizabetes 35,3,88,4/4,P. kara,"298,000  €",56.9577118,24.1116462
centrs,Krāsotāju 13,4,75,2/5,Renov.,"138,000  €",,
centrs,Brīvības 234,3,93,2/5,P. kara,"155,000  €",56.9537963,24.117328
Imanta,Jūrmalas g. 93,2,50,2/9,602.,"55,000  €",56.9529998,24.0165749
Ķengarags,Maskavas 250 K-1,2,42,4/5,Hrušč.,"38,000  €",56.9169978,24.173412465003317
Imanta,Zentenes 5,2,50,9/7,602.,"70,000  €",56.958028,24.00703663594565
Mežciems,Kaivas 33,2,64,2/4,Jaun.,580  €/mēn.,56.9571247,24.2475937
centrs,Vesetas 28,1,31,2/6,Hrušč.,200  €/mēn.,56.9638272,24.1219347
Iļģuciems,Spilves 3,2,50,1/2,Staļina,"52,000  €",56.97237245,24.06322575
Purvciems,Ūnijas 71,1,50,1/1,Specpr.,33  €/dienā,56.9646522,24.17990079562071
Stāvs:,- ,Sērija:103.104.119.467.602.Čehu pr.Hrušč.LT proj.M. ģim.P. karaPriv. m.Renov.Specpr.StaļinaJaun. ,Sērija,Cena,Hrušč.,"43,500  €",51.77014725,-1.2649910410071945
Stāvs:,- ,Sērija:103.104.119.467.602.Čehu pr.Hrušč.LT proj.M. ģim.P. karaPriv. m.Renov.Specpr.StaļinaJaun. ,Sērija,Cena,Hrušč.,"43,500  €",51.77014725,-1.2649910410071945
Mežaparks,Viestura pr. 67,2,46,1/5,Hrušč.,"43,500  €",,
Dārzciems,Lubānas 56a,3,64,4/9,602.,"66,600  €",56.931259,24.17695214668675
Teika,Brīvības 225A,3,46,1/5,Hrušč.,"84,900  €",56.9763625,24.174435889622824
Imanta,Slokas 205 а,3,73,3/5,LT proj.,"93,000  €",56.9624275,24.009397473206263
centrs,Tērbatas 83,1,26,3/5,P. kara,36  €/dienā,56.9600094,24.135120650000005
Teika,Zemitāna lauk. 2a,2,46,2/4,P. kara,250  €/mēn.,,
centrs,Mālpils 2a,1,30,4/5,Hrušč.,350  €/mēn.,56.9661797,24.1260801
Pļavnieki,Rudens 10,1,37,9/9,602.,320  €/mēn.,56.93775,24.200364407988285
centrs,Maskavas 57,2,64,1/3,P. kara,"58,888  €",56.94620965,24.13601347431321
Pļavnieki,Deglava 61,1,38,1/9,119.,250  €/mēn.,56.9449622,24.2172449
Teika,Brīvības 338,6,217,9/10,Jaun.,"256,789  €",56.9805118,24.192253
Ziepniekkalns,Tadaķu 9a,1,30,2/4,Hrušč.,"35,500  €",,
centrs,Stabu 2A,1,28,2/7,Jaun.,"95,500  €",56.95950995,24.121468824548547
Ķengarags,Ikšķiles 7,2,39,2/5,LT proj.,250  €/mēn.,56.9029905,24.20556722368033
Āgenskalns,Mārupes 8,1,25,2/4,P. kara,"49,000  €",56.9343008,24.0713936
Jugla,Vidzemes al. 6,2,36,5/5,Hrušč.,"37,000  €",56.9925634,24.2424634
Iļģuciems,Dagmāras 18,2,55,3/5,Specpr.,"45,000  €",56.9644513,24.062603165749405
centrs,Miera 5,3,73,2/6,P. kara,750  €/mēn.,56.9605921,24.1292334
Āgenskalns,Kalnciema 1,1,28,5/5,Hrušč.,230  €/mēn.,56.9455951,24.0773867
Pļavnieki,Zemes 11,3,63,7/9,602.,"60,000  €",56.9426526,24.20069179999998
centrs,Avotu 76,2,55,2/3,Renov.,350  €/mēn.,56.9532872,24.1467287
centrs,Čaka 26,1,26,5/6,Renov.,"73,400  €",56.95148825,24.127844387101327
Ziepniekkalns,Valdeķu 13 k-2,2,48,3/3,Hrušč.,"39,700  €",56.9165554,24.095990344448275
centrs,Čaka 26,2,40,2/6,P. kara,"105,920  €",56.95148825,24.127844387101327
Purvciems,Madonas 23,2,61,16/16,Specpr.,"60,900  €",56.9611283,24.171955631006007
Daugavgrīva,Birzes 40,2,53,2/5,103.,"37,900  €",57.0372628,24.02827980616405
Dārzciems,Nīcgales 46,2,51,1/9,602.,"53,500  €",56.9458973,24.1712335
Stāvs:,- ,Sērija:103.104.119.467.602.Čehu pr.Hrušč.LT proj.M. ģim.P. karaPriv. m.Renov.Specpr.StaļinaJaun. ,Sērija,Cena,P. kara,"72,000  €",51.77014725,-1.2649910410071945
Stāvs:,- ,Sērija:103.104.119.467.602.Čehu pr.Hrušč.LT proj.M. ģim.P. karaPriv. m.Renov.Specpr.StaļinaJaun. ,Sērija,Cena,P. kara,"72,000  €",51.77014725,-1.2649910410071945
centrs,Brīvības 114,2,55,1/6,P. kara,"72,000  €",56.9619771,24.1348346
Teika,Brīvības 215,2,40,2/4,Renov.,550  €/mēn.,56.975238,24.172448948187675
Grīziņkalns,Pērnavas 35,1,22,4/4,P. kara,160  €/mēn.,56.95597335,24.153355082355397
Purvciems,Deglava 53,3,76,2/9,119.,"68,000  €",56.9518031,24.165962
Imanta,Dammes 40,1,32,6/12,602.,330  €/mēn.,56.96480225,24.01540034907656
Sarkandaugava,Ceļinieku 12,1,22,2/2,P. kara,"14,000  €",56.996822050000006,24.12806361327168
Čiekurkalns,Čiekurkalna 3. šķ l. 2,2,45,2/2,Renov.,280  €/mēn.,,
Āgenskalns,Āgenskalna,2,-,-,-,vēlosīret ,56.9448413,24.0636243
centrs,Valdemāra 106,1,37,3/5,Staļina,"70,000  €",56.9565184,24.1138584
centrs,Ieroču 1,4,108,1/5,Staļina,"115,000  €",,
Mežaparks,Ķempes 7,2,50,3/9,Specpr.,320  €/mēn.,56.99493145,24.16819210671665
Zolitūde,Ruses 14,3,79,2/9,119.,600  €/mēn.,56.9472328,24.00428119416181
centrs,Matīsa 89a,3,80,2/5,P. kara,"85,000  €",56.9564621,24.134618
centrs,Mastu 2,1,29,4/5,Hrušč.,350  €/mēn.,,
Krasta r-ns,Maskavas 190,2,41,2/9,Jaun.,570  €/mēn.,,
centrs,Tērbatas 59/61,4,98,3/6,P. kara,"310,000  €",56.9578128,24.1300556
centrs,Laboratorijas 4,3,67,2/5,Renov.,"106,500  €",,
centrs,Laboratorijas 4,4,67,2/5,Renov.,"94,500  €",,
Grīziņkalns,Asara 9,2,62,2/7,Jaun.,"159,000  €",56.95631345,24.153860471105737
Sarkandaugava,Tvaika 54-4,3,72,1/5,Specpr.,"43,000  €",57.0104416,24.1245318
centrs,Ieroču 6,1,20,1/2,P. kara,"13,780  €",,
centrs,Stabu 61,4,80,3/5,P. kara,"117,000  €",56.9533511,24.1348825
centrs,Stabu 61,3,80,3/5,P. kara,"117,000  €",56.9533511,24.1348825
centrs,Brīvības 102,3,66,3/5,P. kara,470  €/mēn.,56.9611091,24.1332306
Ziepniekkalns,Bauskas 158,1,25,1/2,P. kara,"11,890  €",56.9137741,24.1192507
Ziepniekkalns,Ziepniekkalna 75,3,78,1/4,Jaun.,"189,000  €",56.901134,24.133145
Maskavas priekšpilsēta,Daugavpils 49,2,56,4/5,P. kara,"56,900  €",,
centrs,Avotu 7,3,116,2/5,P. kara,"198,000  €",57.39384895,21.552568526900583
Sarkandaugava,Viestura pr. 43,2,45,2/9,Specpr.,"39,500  €",,
Mangaļsala,Bākas 19,2,62,2/5,Specpr.,"29,500  €",57.05285615,24.069736662362104
Stāvs:,- ,Sērija:103.104.119.467.602.Čehu pr.Hrušč.LT proj.M. ģim.P. karaPriv. m.Renov.Specpr.StaļinaJaun. ,Sērija,Cena,LT proj.,"37,900  €",51.77014725,-1.2649910410071945
Stāvs:,- ,Sērija:103.104.119.467.602.Čehu pr.Hrušč.LT proj.M. ģim.P. karaPriv. m.Renov.Specpr.StaļinaJaun. ,Sērija,Cena,LT proj.,"37,900  €",51.77014725,-1.2649910410071945
Ķengarags,Glūdas 8,1,36,4/5,LT proj.,"37,900  €",56.912411500000005,24.174237413044736
centrs,Barona 80,2,45,1/5,P. kara,"73,000  €",56.957651600000005,24.134578988114114
Pļavnieki,J. Vācieša 8,2,51,9/9,602.,"58,990  €",,
Purvciems,Viršu 1,3,79,3/9,119.,"107,000  €",56.95277615,24.176513679515224
Ķengarags,Prūšu 42,2,44,3/4,Specpr.,"34,000  €",56.90991145,24.194353321605504
Jaunciems,Jaunciema g. 159,1,25,2/3,P. kara,"15,850  €",57.0473198,24.1756587
Ziepniekkalns,Ozolciema 24k-1,1,46,3/10,119.,"49,000  €",56.89929115,24.089261979035754
Ķengarags,Ķengaraga 7,3,62,2/5,LT proj.,"63,000  €",56.91540865,24.169417552058327
Iļģuciems,Skodas 4,2,47,3/5,LT proj.,"45,000  €",56.971073700000005,24.05275417573119
Sarkandaugava,Sīmaņa 11 k-1,2,54,4/4,Hrušč.,"50,000  €",56.99413505,24.13038536666287
Sarkandaugava,Sarkandaugavas 11,2,42,4/5,Hrušč.,290  €/mēn.,56.99898215,24.12328767499813
Jugla,Umurgas 26,2,42,1/5,LT proj.,"38,000  €",56.9838331,24.2455255
Purvciems,Purvciema 50,1,40,5/5,M. ģim.,"32,500  €",56.9545273,24.185579127051785
centrs,Stabu 116,2,31,3/5,P. kara,"77,500  €",56.9599606,24.1209763
Bolderāja,Stagaru 4,1,36,2/5,Specpr.,"41,000  €",57.02965155,24.035975194523694
centrs,Eksporta 16,2,42,3/5,Hrušč.,"56,000  €",56.9593516,24.0983542
Maskavas priekšpilsēta,Daugavpils 49,3,68,4/5,P. kara,"45,000  €",,
centrs,Stabu 100,2,74,1/7,Jaun.,"155,000  €",56.9599606,24.1209763
Ķengarags,Maskavas 409,4,76,3/5,Specpr.,"70,000  €",56.900881600000005,24.202540571699
Ķengarags,Maltas 17,1,28,5/5,LT proj.,"27,200  €",56.9107921,24.18530885722308
centrs,Zirņu 8,2,42,3/5,Hrušč.,360  €/mēn.,,
centrs,Matīsa 63,2,46,5/7,Renov.,"102,600  €",56.95417925,24.13994026860536
Pļavnieki,Rudens 8,1,32,9/9,602.,"36,500  €",56.937662,24.19829488500103
centrs,Matīsa 63,2,34,4/7,Renov.,"76,095  €",56.95417925,24.13994026860536
centrs,Matīsa 63,2,46,4/7,Renov.,"103,455  €",56.95417925,24.13994026860536
centrs,Eksporta 2,2,60,2/5,Staļina,"175,000  €",56.9560744,24.09884523604905
Iļģuciems,Dzirciema 24a,1,43,2/5,M. ģim.,225  €/mēn.,56.9654495,24.0569372
centrs,Čaka 130A,1,32,1/5,P. kara,320  €/mēn.,56.9513692,24.127201
centrs,Brīvības 112,2,67,2/6,P. kara,320  €/mēn.,56.96165695,24.13460929754464
Stāvs:,- ,Sērija:103.104.119.467.602.Čehu pr.Hrušč.LT proj.M. ģim.P. karaPriv. m.Renov.Specpr.StaļinaJaun. ,Sērija,Cena,LT proj.,"38,000  €",51.77014725,-1.2649910410071945
Stāvs:,- ,Sērija:103.104.119.467.602.Čehu pr.Hrušč.LT proj.M. ģim.P. karaPriv. m.Renov.Specpr.StaļinaJaun. ,Sērija,Cena,LT proj.,"38,000  €",51.77014725,-1.2649910410071945
Vecmīlgrāvis,Kāvu 4,1,27,4/5,LT proj.,"38,000  €",57.0331188,24.100459327776196
Torņakalns,Akmeņu 18,2,48,2/3,Specpr.,"91,000  €",56.93946145,24.09667379719525
centrs,Hospitāļu 19,3,76,4/4,P. kara,"165,000  €",,
Zolitūde,Anniņmuižas 4,2,57,2/16,104.,"78,000  €",56.94684925,24.00983524281463
Purvciems,Ieriķu 33,3,57,1/5,LT proj.,"51,000  €",56.96659235,24.17867620470278
Mangaļsala,Bākas 19,1,40,1/5,LT proj.,"36,000  €",57.05285615,24.069736662362104
Teika,Ieriķu 28a,3,101,5/5,Jaun.,"231,000  €",56.9650725,24.171767130052803
Cits,Rūpniecības 27,2,56,2/7,Jaun.,"1,030  €/mēn.",,
centrs,Čaka 31,2,58,3/5,P. kara,400  €/mēn.,56.951845,24.1269283
Vecrīga,Aspazijas bulv. 30,2,36,2/5,P. kara,550  €/mēn.,,
Ziepniekkalns,Bauskas 97,4,67,2/4,Jaun.,"153,900  €",56.9132438,24.1176792
centrs,Vīlandes 15,2,54,4/5,Specpr.,"96,000  €",56.9617996,24.101865
Ziepniekkalns,Bauskas 97,2,48,2/4,Jaun.,"104,900  €",56.9132438,24.1176792
Ziepniekkalns,Bauskas 97,3,64,4/5,Jaun.,"148,900  €",56.9132438,24.1176792
centrs,Tallinas 35,2,50,3/5,P. kara,550  €/mēn.,56.9624912,24.13831886843282
Imanta,Slokas 130A/1,2,56,7/8,Jaun.,550  €/mēn.,56.961725,24.0431452
Āgenskalns,Atpūtas 1,2,55,3/3,Staļina,"76,800  €",56.93680725,24.05821689676796
centrs,Matīsa 59,1,25,4/5,P. kara,250  €/mēn.,56.95442225,24.13942675
centrs,Brīvības 112,5,123,5/5,P. kara,"169,000  €",56.96165695,24.13460929754464
Ziepniekkalns,Ozolciema 18,2,60,1/9,119.,"59,500  €",56.89859735,24.08767077416605
Purvciems,Dzelzavas 67,3,59,4/9,467.,"70,000  €",56.95629695,24.196862459269703
centrs,Pulkv. Brieža 35,3,84,7/7,Jaun.,830  €/mēn.,,
centrs,Pētersalas 9,2,45,2/4,P. kara,35  €/dienā,,
Purvciems,Brantkalna 10,3,75,3/6,119.,"75,000  €",56.9496002,24.192854734276537
centrs,Lāčplēša 53,2,36,1/5,Renov.,"99,981  €",56.9523213,24.130212963747603
centrs,Zaļā 4,4,107,3/7,Specpr.,"259,000  €",56.9592107,23.1658579
Bolderāja,Kvarca 3,1,19,1/2,Renov.,200  €/mēn.,57.02894,24.040738724341587
Pļavnieki,Ulbrokas 12/3,3,95,7/10,Jaun.,"204,000  €",56.9405859,24.2157801
Iļģuciems,Vaidelotes 21,2,42,1/5,Hrušč.,250  €/mēn.,56.96737265,24.049364277732398
Stāvs:,- ,Sērija:103.104.119.467.602.Čehu pr.Hrušč.LT proj.M. ģim.P. karaPriv. m.Renov.Specpr.StaļinaJaun. ,Sērija,Cena,Jaun.,"298,000  €",51.77014725,-1.2649910410071945
Stāvs:,- ,Sērija:103.104.119.467.602.Čehu pr.Hrušč.LT proj.M. ģim.P. karaPriv. m.Renov.Specpr.StaļinaJaun. ,Sērija,Cena,Jaun.,"298,000  €",51.77014725,-1.2649910410071945
centrs,Čaka 142,5,136,4/6,Jaun.,"298,000  €",56.9513692,24.127201
Imanta,Kurzemes pr. 96,1,30,5/5,LT proj.,"32,000  €",,
Jugla,Juglas 23,2,47,5/5,Hrušč.,330  €/mēn.,56.98386715,24.24852793688924
Čiekurkalns,Čiekurkalna 2. l. 49a,3,81,2/4,Jaun.,"139,500  €",56.9834267,24.1658176
Zolitūde,Lejiņa 20,1,46,1/9,119.,"55,000  €",56.946790500000006,24.02163402536427
centrs,Barona 10,3,85,5/5,P. kara,650  €/mēn.,56.9502301,24.1195455
Āgenskalns,Slokas 18 C,5,158,1/2,P. kara,"95,000  €",56.9472348,24.07416718043554
Maskavas priekšpilsēta,Grēdu 1,2,42,1/5,Hrušč.,"38,000  €",,
Imanta,Dammes 11,2,50,4/9,602.,270  €/mēn.,56.9615604,24.011811415811447
Teika,Bajāru 59,4,168,2/3,Specpr.,"335,000  €",56.971369,24.192236902641945
Ķengarags,Bultu 7,1,35,5/11,M. ģim.,"32,900  €",56.9104694,24.19618874998843
centrs,Barona 10,2,60,5/5,P. kara,450  €/mēn.,56.9502301,24.1195455
Pļavnieki,Salnas 7,3,63,5/9,602.,"55,000  €",56.942642500000005,24.22222013926563
centrs,Brīvības 108,1,37,5/6,P. kara,380  €/mēn.,56.96145645,24.133971103487063
Torņakalns,Satiksmes 3,2,56,5/6,Jaun.,550  €/mēn.,56.9271709,24.0923985
Jugla,Mārkalnes 5,1,17,1/5,M. ģim.,"18,500  €",56.992411700000005,24.22864482657527
Mežciems,Biķernieku 216,2,53,4/5,103.,"38,000  €",56.9599931,24.2286894
Daugavgrīva,Plēksnes 3,2,47,5/5,103.,"45,000  €",57.03997605,24.03086662811362
Iļģuciems,Dzirciema 61,3,58,6/9,467.,"63,000  €",56.96331115,24.05423811540512
Šampēteris-Pleskodāle,Volguntes 40,3,98,3/4,Jaun.,"250,000  €",56.9375738,24.037465450000006
Krasta r-ns,Kojusalas 17,2,48,12/12,Čehu pr.,440  €/mēn.,,
Maskavas priekšpilsēta,Ludzas 51,3,74,1/2,P. kara,"39,990  €",,
centrs,Martas 7,2,70,2/7,Jaun.,"232,000  €",56.9553717,24.1281063609436
Mežciems,Līduma 8a,2,78,1/5,Jaun.,"125,000  €",56.9731286,24.23227916778371
centrs,Maskavas 106,1,30,2/3,P. kara,350  €/mēn.,57.4025243,21.5704533
centrs,Maskavas 106,1,24,3/3,P. kara,350  €/mēn.,57.4025243,21.5704533
Ķengarags,Pelnu 1,2,50,3/9,467.,260  €/mēn.,56.9080231,24.199092101750992
Ķengarags,Maskavas 317,1,35,8/12,Čehu pr.,"36,000  €",56.9086945,24.1843373
Stāvs:,- ,Sērija:103.104.119.467.602.Čehu pr.Hrušč.LT proj.M. ģim.P. karaPriv. m.Renov.Specpr.StaļinaJaun. ,Sērija,Cena,Renov.,"112,000  €",51.77014725,-1.2649910410071945
Stāvs:,- ,Sērija:103.104.119.467.602.Čehu pr.Hrušč.LT proj.M. ģim.P. karaPriv. m.Renov.Specpr.StaļinaJaun. ,Sērija,Cena,Renov.,"112,000  €",51.77014725,-1.2649910410071945
Čiekurkalns,Inčukalna 2,2,47,3/5,Renov.,"112,000  €",,
Āgenskalns,Akmeņu 15,1,37,3/5,P. kara,250  €/mēn.,,
centrs,Elijas 5,4,75,1/4,P. kara,20  €/dienā,,
Čiekurkalns,Inčukalna 2,3,64,4/5,Renov.,"156,000  €",,
Ķengarags,Prūšu 4,4,100,4/5,Jaun.,"137,000  €",56.9146815,24.18146133464188
Teika,Brīvības,2,50,-,-,pērku ,56.9799862,24.1896503
centrs,Brīvības,2,50,-,P. kara,pērku ,56.9577732,24.1231148
Purvciems,Stirnu 48,1,43,1/5,M. ģim.,"36,000  €",56.9641619,24.1953046
Mežaparks,Inčukalna 2,4,95,3/5,Renov.,"215,000  €",56.9960407,24.14246281831603
centrs,Zaķu 4,2,31,1/2,P. kara,245  €/mēn.,,
centrs,Lāčplēša 43/45,2,55,3/6,P. kara,500  €/mēn.,56.9528912,24.12876676327121
centrs,Stabu 29,3,84,3/5,P. kara,"195,000  €",56.9563842,24.12869599714608
centrs,Bruņinieku 115B,1,45,3/5,Renov.,180  €/mēn.,56.961172,24.1229335
Pļavnieki,Salnas 13,4,77,3/9,602.,"80,000  €",56.94271705,24.22601067522769
Imanta,Jūrmalas g. 93/2,2,50,8/9,602.,320  €/mēn.,,
centrs,Laboratorijas 11,1,10,3/4,P. kara,240  €/mēn.,,
Ziepniekkalns,Skaistkalnes 17,3,55,3/5,Jaun.,550  €/mēn.,56.9148436,24.101803762989245
Imanta,Bolderājas 12,1,25,2/2,P. kara,"15,000  €",56.96516385,24.04418755
Mežaparks,Inčukalna 2,2,47,3/5,Renov.,"112,000  €",56.9960407,24.14246281831603
centrs,Šarlotes 5,3,82,5/5,P. kara,"180,000  €",56.9639655,24.12821884648572
Teika,Ropažu 16a,2,44,1/5,Jaun.,650  €/mēn.,56.97715395,24.168983121710685
Mežaparks,Inčukalna 2,3,64,3/5,Renov.,"156,000  €",56.9960407,24.14246281831603
Krasta r-ns,Zilupes 31,2,49,6/9,467.,"43,000  €",,
centrs,Pumpura 5,3,150,1/6,P. kara,"190,000  €",56.9563679,24.1103724
centrs,Rūdolfa 1,1,28,3/6,P. kara,"45,000  €",,
Sarkandaugava,Sarkandaugavas 26k6,2,40,4/5,Hrušč.,"45,000  €",57.001205600000006,24.12526725915088
Imanta,Anniņmuižas 13,5,183,11/12,Jaun.,"1,100  €/mēn.",56.9573992,24.0237329
Purvciems,Ieriķu 50,3,74,1/3,Staļina,"119,000  €",56.96568885000001,24.1810424
Vecmīlgrāvis,Rīnūžu 11,3,69,3/5,Specpr.,"75,000  €",57.037869400000005,24.08963388799669
Āgenskalns,Baldones 10,2,56,1/2,P. kara,"34,900  €",56.94868905,24.06351474408036
Stāvs:,- ,Sērija:103.104.119.467.602.Čehu pr.Hrušč.LT proj.M. ģim.P. karaPriv. m.Renov.Specpr.StaļinaJaun. ,Sērija,Cena,LT proj.,"55,000  €",51.77014725,-1.2649910410071945
Stāvs:,- ,Sērija:103.104.119.467.602.Čehu pr.Hrušč.LT proj.M. ģim.P. karaPriv. m.Renov.Specpr.StaļinaJaun. ,Sērija,Cena,LT proj.,"55,000  €",51.77014725,-1.2649910410071945
Purvciems,Vaidavas 9,2,38,3/5,LT proj.,"55,000  €",56.9618126,24.177521935658103
Vecmīlgrāvis,Vecmīlgrāvja 9/2,1,30,4/4,Hrušč.,"27,900  €",57.0293584,24.1080912
Zolitūde,Anniņmuižas 13,4,183,11/12,Jaun.,"299,900  €",56.945679600000005,24.014674601552507
Zolitūde,Anniņmuižas 13,5,183,11/12,Jaun.,"1,100  €/mēn.",56.945679600000005,24.014674601552507
centrs,Pulkv. Brieža 6,3,95,2/5,Renov.,600  €/mēn.,,
Vecmīlgrāvis,Meldru 14,3,55,5/5,LT proj.,"37,000  €",57.0309342,24.098328214273664
Imanta,Anniņmuižas 13,5,183,11/12,Jaun.,"299,900  €",56.9573992,24.0237329
Pļavnieki,Saharova 8,3,72,2/9,Jaun.,60  €/dienā,56.9342845,24.203376222222225
Mežaparks,Ķempes 2,2,40,4/12,Jaun.,"119,000  €",56.99350885,24.1648516002803
Mežaparks,Ķempes 2,4,77,5/12,Jaun.,"217,900  €",56.99350885,24.1648516002803
Ķengarags,Maskavas 250,2,39,2/5,LT proj.,350  €/mēn.,56.9184658,24.17248013013156
centrs,Bruņinieku 115A,1,20,2/5,Renov.,150  €/mēn.,56.961172,24.1229335
centrs,Miera 101,1,46,2/5,P. kara,320  €/mēn.,56.9698441,23.1473802
centrs,Jeruzalemes 1,3,110,5/6,Jaun.,"1,500  €/mēn.",56.95751385,24.11291667501842
Imanta,Kurzemes pr. 86,2,51,5/9,602.,"47,900  €",,
Vecmīlgrāvis,Emmas 10,3,65,1/3,Staļina,"47,900  €",57.0289807,24.1100786
centrs,Katrīnas d. 22,2,50,2/4,Staļina,"90,000  €",57.3961035,21.5695761
Sarkandaugava,Hāpsalas 12,1,24,3/3,Renov.,220  €/mēn.,57.0001777,24.1220278
centrs,Bruņinieku 115,2,38,1/4,Renov.,325  €/mēn.,56.961172,24.1229335
Mežciems,Eizenšteina 45,3,63,6/9,602.,"57,000  €",56.9658403,24.23534503926509
Jugla,Brīvības 399,2,42,5/5,Hrušč.,"33,500  €",56.9884006,24.22876300952981
Pļavnieki,Jasmuižas 7,1,36,2/9,602.,"47,650  €",56.93721775,24.210225601936564
Zasulauks,Rododendru 5,2,49,5/5,Specpr.,"64,000  €",56.9476119,24.05027389578908
Āgenskalns,Elvīras 12,2,48,2/5,Specpr.,380  €/mēn.,,
Mežaparks,Ķempes 4,2,66,8/12,Jaun.,"145,000  €",56.9943642,24.166126688574955
Maskavas priekšpilsēta,Daugavpils 48B,1,19,1/1,P. kara,20  €/dienā,,
centrs,Lenču 2,2,57,6/6,P. kara,450  €/mēn.,56.9616145,24.1100341
Stāvs:,- ,Sērija:103.104.119.467.602.Čehu pr.Hrušč.LT proj.M. ģim.P. karaPriv. m.Renov.Specpr.StaļinaJaun. ,Sērija,Cena,119.,"69,500  €",51.77014725,-1.2649910410071945
Stāvs:,- ,Sērija:103.104.119.467.602.Čehu pr.Hrušč.LT proj.M. ģim.P. karaPriv. m.Renov.Specpr.StaļinaJaun. ,Sērija,Cena,119.,"69,500  €",51.77014725,-1.2649910410071945
Purvciems,Nīcgales 31,2,58,1/9,119.,"69,500  €",56.95257545,24.17545386562859
centrs,Mednieku 7,3,83,2/4,Renov.,"300,000  €",56.96047705,24.107971611374047
Jugla,Auduma 35,3,58,3/5,Hrušč.,"48,000  €",56.9921929,24.23836617491188
Ķengarags,Maskavas 250,2,39,2/5,LT proj.,"46,000  €",56.9184658,24.17248013013156
centrs,Maskavas 39,1,31,2/6,Renov.,280  €/mēn.,57.4025243,21.5704533
Imanta,Anniņmuižas 11,4,127,1/2,Jaun.,"325,000  €",56.9565765,24.02318336703034
centrs,Baznīcas 45,3,77,4/5,P. kara,800  €/mēn.,56.9599931,24.1244665
centrs,Vagonu 22,1,27,2/5,Renov.,45  €/dienā,,
Mangaļi,Ezera 19,1,30,2/2,P. kara,"22,300  €",,
centrs,Stabu 46,3,83,4/6,P. kara,810  €/mēn.,56.9543322,24.1313043698515
Teika,Vidrižu 4,1,44,8/9,Čehu pr.,300  €/mēn.,56.9788671,24.1774824079002
Berģi,Kaktusu 6,3,77,1/2,Renov.,"168,900  €",56.99581795,24.270274860747463
Ziepniekkalns,Valdeķu 50/2,2,51,4/9,602.,"59,000  €",56.8985515,24.0920612
Ziepniekkalns,Vaiņodes 24А,2,47,3/5,LT proj.,"36,500  €",56.91468355,24.091679880175576
Torņakalns,Vienības g. 70A,1,22,2/2,P. kara,300  €/mēn.,,
Iļģuciems,Daugavgrīvas 132,2,58,3/5,Staļina,300  €/mēn.,56.96895055,24.07125109079925
Ziepniekkalns,Bauskas 149,2,50,1/3,Staļina,250  €/mēn.,56.9137741,24.1192507
Bolderāja,Tekstilnieku 16,1,29,1/2,P. kara,"5,000  €",57.0307978,24.0421227
Imanta,Jūrmalas g. 93/1,2,49,5/5,LT proj.,"62,000  €",56.9521893,24.0276937
Dzegužkalns,Daugavgrīvas 88,2,56,1/2,P. kara,280  €/mēn.,,
Āgenskalns,Jūrmalas g. 9,3,66,3/5,LT proj.,"63,800  €",,
Čiekurkalns,Rusova 7,2,36,6/6,Jaun.,"92,160  €",56.98931435,24.16967683158608
Pļavnieki,Rudens 6,3,63,6/9,602.,"63,000  €",56.9373471,24.19741087309322
centrs,Pļavas 4,4,74,3/3,Renov.,"162,500  €",57.3858395,21.56428637359035
Ziepniekkalns,Ziepju 9,2,46,5/5,103.,"55,000  €",56.91472705,24.10920922763967
Jugla,Silciema 15 K2,3,58,5/5,Hrušč.,"46,000  €",56.9852872,24.240682955184717
Teika,Ropažu 17,1,29,1/3,Renov.,350  €/mēn.,56.97693595,24.171783011498825
Pļavnieki,Zebiekstes 5,3,75,1/12,104.,"58,500  €",,
Stāvs:,- ,Sērija:103.104.119.467.602.Čehu pr.Hrušč.LT proj.M. ģim.P. karaPriv. m.Renov.Specpr.StaļinaJaun. ,Sērija,Cena,602.,"68,000  €",51.77014725,-1.2649910410071945
Stāvs:,- ,Sērija:103.104.119.467.602.Čehu pr.Hrušč.LT proj.M. ģim.P. karaPriv. m.Renov.Specpr.StaļinaJaun. ,Sērija,Cena,602.,"68,000  €",51.77014725,-1.2649910410071945
Mežciems,Eizenšteina 35,4,77,4/9,602.,"68,000  €",56.9678443,24.234022900000006
Jugla,Vangažu 11,1,37,2/12,Specpr.,"33,500  €",56.9871472,24.22863905462379
Klīversala,Raņķa d. 7,2,43,4/5,Hrušč.,400  €/mēn.,,
Ķīpsala,Balasta d. 72,3,122,1/4,Specpr.,"395,000  €",56.9476673,24.0873316
centrs,Tallinas 30,3,103,2/5,P. kara,"197,800  €",56.9621313,24.1383736
Vecmīlgrāvis,Meldru 4,2,40,3/5,Hrušč.,180  €/mēn.,57.0278589,24.1029177
Ķengarags,Maskavas 315,1,35,10/12,Čehu pr.,"32,600  €",56.9091346,24.18367779623388
centrs,Čaka 49,3,96,2/6,P. kara,"121,200  €",56.953884,24.131553
Purvciems,Stirnu 49c,3,60,4/5,LT proj.,"52,500  €",56.96356555,24.19111263855323
Vecmīlgrāvis,Meldru 20,3,69,5/5,LT proj.,"42,400  €",57.0320398,24.097046081516662
Maskavas priekšpilsēta,Ludzas 42/1,1,29,1/5,Hrušč.,"33,500  €",,
Imanta,Akāciju 2E,3,55,1/9,Jaun.,"120,000  €",56.9518718,24.004985904603476
Maskavas priekšpilsēta,Kalupes 15,1,36,3/5,P. kara,"52,000  €",,
Bolderāja,Gobas 20,2,53,7/9,Specpr.,"47,000  €",57.02970625,24.052924730523323
