,Unnamed: 0,district,address,room_count,area,floors,house_type,price,latitude,longitude,quadrant,price_psqm,apkaime
0,0,Iļģuciems,Palangas 7,3,66.0,5/5,LT proj.,60500.0,56.97087085,24.053864891592003,1156.0,916.6666666666666,Iļģuciems
1,1,Purvciems,Varavīksnes g. 14,1,31.0,3/9,602.,40000.0,56.9521953,24.2048373,934.0,1290.3225806451612,Purvciems
2,2,Pļavnieki,Jasmuižas 6,2,50.0,4/9,602.,51800.0,56.936898150000005,24.20926459415137,746.0,1036.0,Pļavnieki
3,3,Purvciems,Burtnieku 35,1,13.0,3/4,Hrušč.,18500.0,56.9664204,24.1816747,1118.0,1423.076923076923,Teika
4,4,Zolitūde,Ruses 20,2,59.0,5/6,119.,64500.0,56.94647355,24.00580932807084,831.0,1093.2203389830509,Zolitūde
5,5,Teika,Ropažu 35,3,78.0,2/3,P. kara,107000.0,56.9789467,24.17601354540493,1243.0,1371.7948717948718,Teika
6,6,Ķengarags,Prūšu 21/2,1,12.0,4/4,M. ģim.,17000.0,56.908522,24.1969884,365.0,1416.6666666666667,Ķengarags
7,7,Čiekurkalns,Rusova 24,1,43.0,1/5,M. ģim.,36000.0,56.987545350000005,24.170802940161952,1368.0,837.2093023255813,Čiekurkalns
8,8,Vecmīlgrāvis,Vijolīšu 6,1,43.0,3/5,M. ģim.,45000.0,57.0350429,24.0944356,1920.0,1046.5116279069769,Vecmilgrāvis
9,9,Teika,Brīvības 239,1,27.0,5/5,Specpr.,48000.0,56.97720845,24.178724282406527,1244.0,1777.7777777777778,Teika
10,10,Ķengarags,Ikšķiles 4,3,62.0,5/5,LT proj.,67900.0,56.90080385,24.20703229999999,304.0,1095.1612903225807,Ķengarags
11,11,Vecmīlgrāvis,Atlantijas 8,1,38.0,4/5,Hrušč.,36000.0,57.03824655,24.08781580862039,1982.0,947.3684210526316,Vecmilgrāvis
12,12,Purvciems,Ieriķu 58,1,36.0,6/9,Specpr.,46999.0,56.9655739,24.18301731808966,1119.0,1305.5277777777778,Purvciems
13,13,Teika,Ieriķu 58,1,36.0,5/6,Specpr.,46999.0,56.9656754,24.1716043,1116.0,1305.5277777777778,Teika
14,14,Sarkandaugava,Gaujienas 3a,1,36.0,2/2,Specpr.,23500.0,57.0071171,24.12327825,1611.0,652.7777777777778,Sarkandaugava
15,15,Āgenskalns,Dreiliņu 18,1,30.0,4/5,Hrušč.,44000.0,56.9413267,24.0606631,779.0,1466.6666666666667,Āgenskalns
16,16,Dārzciems,Sesku 7,1,42.0,5/5,M. ģim.,28500.0,56.94505225,24.17412735,802.0,678.5714285714286,Dārzciems
17,17,Purvciems,Kastrānes 14,2,54.0,2/5,Specpr.,80000.0,56.9659974,24.1766569,1117.0,1481.4814814814815,Teika
18,18,Imanta,Anniņmuižas 38,3,82.0,4/18,Jaun.,165000.0,56.96111815,24.018227955704056,1023.0,2012.19512195122,Imanta
19,19,Mežciems,Biķernieku 160,3,78.0,3/5,Jaun.,156000.0,56.9599931,24.2286894,1002.0,2000.0,Dreiliņi
20,20,Vecrīga,Tirgoņu 17,2,54.0,3/5,Renov.,150000.0,56.9484815,24.1061513,851.0,2777.777777777778,Vecpilsēta
21,21,Zolitūde,Bieziņa 10,3,75.0,10/5,119.,69300.0,56.94515505,24.02329050731449,772.0,924.0,Zolitūde
22,22,Bolderāja,Lielupes 68,2,38.0,5/5,LT proj.,29000.0,57.03099155,24.05739466899584,1913.0,763.1578947368421,Bolderāja
23,23,Vecmīlgrāvis,Meldru 2,3,56.0,4/5,Hrušč.,40800.0,57.0275012,24.1036538,1859.0,728.5714285714286,Vecmilgrāvis
24,24,Purvciems,Vējavas 9c,2,75.0,1/4,Jaun.,85000.0,56.958955,24.17026729355616,990.0,1133.3333333333333,Purvciems
25,25,centrs,Brīvības 95,2,78.0,7/7,Renov.,205040.0,56.96131475,24.131717044166592,1045.0,2628.7179487179487,Centrs
26,26,Purvciems,Deglava 59,3,77.0,2/6,119.,83500.0,56.9518031,24.165962,926.0,1084.4155844155844,Dārzciems
27,27,Purvciems,Zvaigznāja g. 14,2,50.0,3/5,LT proj.,56500.0,56.9528067,24.2062064,934.0,1130.0,Purvciems
28,28,Mežaparks,Ezermalas 4/2,2,51.0,5/5,Specpr.,58000.0,56.9984019,24.1707634,1494.0,1137.2549019607843,Mežaparks
29,29,Zolitūde,Gramzdas 17,3,75.0,5/9,119.,68500.0,56.944908600000005,24.00898897570804,769.0,913.3333333333334,Zolitūde
30,30,Ķengarags,Višķu 19,1,30.0,4/5,LT proj.,32000.0,56.90032605,24.214265399999995,243.0,1066.6666666666667,Ķengarags
31,31,Ķengarags,Aviācijas 23 k1,1,31.0,6/12,Specpr.,36950.0,56.9039349,24.20031498142857,303.0,1191.9354838709678,Ķengarags
32,32,Ķengarags,Salaspils 12/5,4,62.0,4/5,LT proj.,90000.0,56.9221101,24.1811252,551.0,1451.6129032258063,Ķengarags
33,33,Imanta,Anniņmuižas 38 k-3,2,57.0,6/18,Jaun.,130000.0,56.9608756,24.015701800228435,1022.0,2280.7017543859647,Imanta
34,34,centrs,Marijas 1,2,80.0,3/6,P. kara,132000.0,56.948011,24.1193558,854.0,1650.0,Centrs
35,35,centrs,Marijas 1,6,125.0,4/6,P. kara,199000.0,56.948011,24.1193558,854.0,1592.0,Centrs
36,36,centrs,Brīvības 159,2,46.0,3/6,P. kara,55000.0,56.9537963,24.117328,917.0,1195.6521739130435,Centrs
37,37,Šampēteris-Pleskodāle,Irlavas 26,1,35.0,2/5,103.,39998.0,56.94004775,24.03471459886179,711.0,1142.8,Pleskodāle
38,38,Āgenskalns,Melnsila 28,3,58.0,1/5,Hrušč.,111000.0,56.9463639,24.064095401489567,843.0,1913.793103448276,Āgenskalns
39,39,Jugla,Ciemupes 1,2,50.0,1/9,Jaun.,76000.0,56.9881961,24.246946592724093,1383.0,1520.0,Jugla
40,40,centrs,Baznīcas 7,4,166.0,6/6,Renov.,240000.0,56.9557916,24.117568,980.0,1445.7831325301204,Centrs
41,41,Imanta,Anniņmuižas 92,2,50.0,3/9,602.,64500.0,56.9573992,24.0237329,961.0,1290.0,Imanta
42,42,Pļavnieki,Saharova 27,3,74.0,13/16,Specpr.,93000.0,56.9413857,24.2040933,808.0,1256.7567567567569,Pļavnieki
43,43,Mežciems,Eizenšteina 35,4,78.0,6/9,602.,85000.0,56.9678443,24.234022900000006,1129.0,1089.7435897435898,Mežciems
44,44,centrs,Tomsona 2,4,123.0,3/6,P. kara,198500.0,56.96346405,24.12405597786933,1044.0,1613.821138211382,Centrs
45,45,Purvciems,Staiceles 17,3,62.0,2/5,LT proj.,53990.0,56.95787475,24.1733414,991.0,870.8064516129032,Purvciems
46,46,Āgenskalns,Daugavgrīvas 41,1,30.0,2/2,P. kara,32300.0,56.9441285,24.0836451,784.0,1076.6666666666667,Āgenskalns
47,47,Ķengarags,Ikšķiles 4,2,45.0,5/5,LT proj.,49900.0,56.90080385,24.20703229999999,304.0,1108.888888888889,Ķengarags
48,48,Teika,Brīvības 215,2,53.0,5/5,Specpr.,40000.0,56.975238,24.172448948187675,1180.0,754.7169811320755,Teika
49,49,Pļavnieki,Salnas 21,2,47.0,3/9,Jaun.,93500.0,56.942327,24.23009287799782,813.0,1989.36170212766,Pļavnieki
50,50,Mežciems,Eizenšteina 37,2,51.0,1/9,602.,57750.0,56.9674866,24.23357643370678,1129.0,1132.3529411764705,Mežciems
51,51,Purvciems,Ieriķu 19,2,45.0,1/2,Hrušč.,37500.0,56.9657678,24.1858786,1119.0,833.3333333333334,Purvciems
52,52,Pļavnieki,Lubānas 129,1,44.0,8/9,602.,40000.0,56.9411711,24.237357,815.0,909.0909090909092,Šķirotava
53,53,centrs,Skolas 10,3,198.0,6/6,Renov.,295000.0,56.95679505,24.117743124113645,980.0,1489.8989898989898,Centrs
54,54,Daugavgrīva,Slimnīcas 5,1,34.0,5/5,103.,35000.0,57.03916545,24.03121370376394,1970.0,1029.4117647058824,Daugavgrīva
55,55,centrs,Dzirnavu 115A,1,117.0,3/5,P. kara,210000.0,56.9493669,24.12535822044176,855.0,1794.871794871795,Avoti
56,56,Imanta,Zentenes 24,3,67.0,1/5,LT proj.,49950.0,56.96054995,24.002337056994552,1020.0,745.5223880597015,Imanta
57,57,Purvciems,Braslas 53,2,71.0,3/6,Jaun.,126000.0,56.95747179999999,24.16698908820361,989.0,1774.6478873239437,Purvciems
58,58,Ķengarags,Maskavas 252/5,2,48.0,5/5,Hrušč.,49950.0,56.8997798,24.2039578,241.0,1040.625,Rumbula
59,59,Šampēteris-Pleskodāle,Lielirbes 11,3,101.0,20/24,Jaun.,200000.0,56.9348241,24.0428561,650.0,1980.1980198019803,Pleskodāle
60,60,Ķengarags,Prūšu 23,3,57.0,4/5,Hrušč.,68000.0,56.91062315,24.19429912193852,428.0,1192.982456140351,Ķengarags
61,61,Zolitūde,Ruses 9,2,59.0,6/9,119.,69500.0,56.9473522,24.0057465,831.0,1177.966101694915,Zolitūde
62,62,centrs,Ģertrūdes 113,2,56.0,1/6,P. kara,91000.0,56.9582121,24.1213972,980.0,1625.0,Centrs
63,63,centrs,Bruņinieku 45,4,115.0,3/6,P. kara,268000.0,56.9558551,24.13277968589744,983.0,2330.4347826086955,Centrs
64,64,Jaunciems,Jaunciema g. 167,1,19.0,1/2,P. kara,9600.0,57.0473198,24.1756587,2125.0,505.2631578947368,Jaunciems
65,65,Ķengarags,Salaspils 6,3,60.0,2/5,LT proj.,51500.0,56.9224989,24.1797086,551.0,858.3333333333334,Ķengarags
66,66,Iļģuciems,Spilves 39,3,62.0,5/5,LT proj.,48300.0,56.9698075,24.0481658,1092.0,779.0322580645161,Iļģuciems
67,67,Iļģuciems,Buļļu 35A,3,54.0,4/5,LT proj.,39900.0,56.96943105,24.050885055079853,1092.0,738.8888888888889,Iļģuciems
68,68,Pļavnieki,Jasmuižas 7,1,36.0,2/9,602.,49650.0,56.93721775,24.210225601936564,746.0,1379.1666666666667,Pļavnieki
69,69,Pļavnieki,Salnas 1,4,75.0,9/9,467.,75000.0,56.9437576,24.217925052427685,811.0,1000.0,Pļavnieki
70,70,Purvciems,Dzelzavas 101,2,50.0,1/5,LT proj.,56500.0,56.95508045,24.205017412541544,934.0,1130.0,Purvciems
71,71,Vecmīlgrāvis,Kāvu 4,2,51.0,4/5,LT proj.,37000.0,57.0331188,24.1004593277762,1921.0,725.4901960784314,Vecmilgrāvis
72,72,Zolitūde,Anniņmuižas 20,5,230.0,5/5,Jaun.,279000.0,56.94280435,24.017229193873447,770.0,1213.0434782608695,Zolitūde
73,73,Ķengarags,Aviācijas 23/1,1,33.0,6/12,Čehu pr.,39000.0,56.9013412,24.2054839,304.0,1181.8181818181818,Ķengarags
74,74,centrs,Elizabetes 9,3,70.0,5/5,Renov.,146000.0,56.9592539,24.100972,976.0,2085.714285714286,Centrs
75,75,Teika,Biķernieku 11,4,93.0,3/4,P. kara,179500.0,56.9721296,24.1691892,1179.0,1930.1075268817203,Teika
76,76,Imanta,Kleistu 18,3,54.0,3/5,LT proj.,49500.0,56.9639437,24.0251169448514,1024.0,916.6666666666666,Imanta
77,77,Pļavnieki,Jasmuižas 10,3,62.0,2/9,602.,69500.0,56.93629135,24.21097456151544,746.0,1120.967741935484,Pļavnieki
78,78,Āgenskalns,Ernestīnes 4A,2,42.0,2/2,Specpr.,46000.0,56.9435901,24.0735055,782.0,1095.2380952380952,Āgenskalns
79,79,Šampēteris-Pleskodāle,Lielirbes 13,3,90.0,6/30,Jaun.,169000.0,56.9348241,24.0428561,650.0,1877.7777777777776,Pleskodāle
80,80,centrs,Tallinas 91,1,24.0,1/3,Renov.,54500.0,56.9557254,24.1503509,986.0,2270.833333333333,Grīziņkalns
81,81,centrs,Tallinas 91,3,105.0,1/3,Renov.,245700.0,56.9557254,24.1503509,986.0,2340.0,Grīziņkalns
82,82,centrs,Tallinas 91,2,36.0,3/3,Renov.,87700.0,56.9557254,24.1503509,986.0,2436.1111111111118,Grīziņkalns
83,83,centrs,Tallinas 91,3,47.0,2/3,Renov.,111900.0,56.9557254,24.1503509,986.0,2380.851063829787,Grīziņkalns
84,84,centrs,Tallinas 91,1,20.0,1/3,Renov.,45900.0,56.9557254,24.1503509,986.0,2295.0,Grīziņkalns
85,85,Āgenskalns,Ļermontova 3,2,51.0,1/2,M. ģim.,74200.0,56.94047275,24.07170967717864,718.0,1454.9019607843138,Āgenskalns
86,86,Imanta,Anniņmuižas 38K1,2,118.0,1/18,Jaun.,117000.0,56.961182750000006,24.01721455431201,1022.0,991.5254237288136,Imanta
87,87,Vecmīlgrāvis,Dombrovska 7б,3,60.0,2/2,P. kara,28000.0,57.0277911,24.11380012084323,1861.0,466.6666666666667,Vecmilgrāvis
88,88,Purvciems,Lielvārdes 103,3,71.0,12/12,104.,69000.0,56.9601372,24.198582939838914,996.0,971.830985915493,Purvciems
89,89,Iļģuciems,Spilves 35,3,60.0,1/5,LT proj.,42000.0,56.97089835,24.050697839740387,1155.0,700.0,Iļģuciems
90,90,Purvciems,Andromedas g. 1,2,49.0,5/5,LT proj.,66500.0,56.9604406,24.1986457,996.0,1357.142857142857,Purvciems
91,91,Ķengarags,Aglonas 31,2,40.0,1/5,Hrušč.,48000.0,56.9127093,24.184851050467408,426.0,1200.0,Ķengarags
92,92,Ziepniekkalns,Ēbeļmuižas 20,1,36.0,1/9,602.,41000.0,56.90359295,24.099094942910533,283.0,1138.888888888889,Ziepniekkalns
93,93,Pļavnieki,Salnas 21,2,54.0,1/9,Jaun.,83000.0,56.942327,24.23009287799782,813.0,1537.037037037037,Pļavnieki
94,94,Zolitūde,Augšzemes 5,3,90.0,2/4,Jaun.,160000.0,56.94414285,24.02350542614048,772.0,1777.7777777777778,Zolitūde
95,95,Imanta,Dammes 33,3,66.0,2/5,LT proj.,66000.0,56.9647216,24.00658904641454,1020.0,1000.0,Imanta
96,96,Vecmīlgrāvis,Dombrovska 47,4,78.0,5/9,602.,76500.0,57.0346715,24.09950273233128,1921.0,980.7692307692308,Vecmilgrāvis
97,97,Sarkandaugava,Duntes 24,1,25.0,2/2,P. kara,19000.0,56.9843132,24.135995378428355,1298.0,760.0,Sarkandaugava
98,98,Mežciems,Druvienas 19,3,60.0,2/5,LT proj.,53500.0,56.9721158,24.22913725,1191.0,891.6666666666666,Mežciems
99,99,Vecrīga,Šķūņu 6,1,42.0,3/4,Renov.,142000.0,56.948731550000005,24.107531942606784,852.0,3380.9523809523807,Vecpilsēta
100,100,Purvciems,Ainavas 2,2,37.0,1/5,LT proj.,33500.0,56.9640707,24.190404975597417,1057.0,905.4054054054054,Purvciems
101,101,Mežaparks,Ezermalas 2A,2,50.0,4/12,Čehu pr.,49900.0,56.9984019,24.1707634,1494.0,998.0,Mežaparks
102,102,centrs,Brīvības 103,3,89.0,3/6,P. kara,183000.0,56.9614331,24.1331108,1046.0,2056.179775280899,Centrs
103,103,Zolitūde,Lejiņa 16,1,43.0,8/9,119.,49800.0,56.9477553,24.022188344873264,834.0,1158.139534883721,Zolitūde
104,104,Pļavnieki,Salnas 3,1,32.0,1/9,602.,29500.0,56.94361645,24.21888362164634,811.0,921.875,Pļavnieki
105,105,Vecmīlgrāvis,Ledus 2,1,35.0,3/9,602.,34500.0,57.03751635,24.09565913111913,1983.0,985.7142857142856,Vecmilgrāvis
106,106,Iļģuciems,Dzirciema 57,2,48.0,3/9,467.,43000.0,56.96156055,24.05295580144329,1030.0,895.8333333333334,Iļģuciems
107,107,Iļģuciems,Baltā 17,2,50.0,4/5,LT proj.,35000.0,56.9699771,24.0655410145407,1095.0,700.0,Iļģuciems
108,108,centrs,Valdemāra 69,2,55.0,1/6,Renov.,99800.0,56.9620417,24.1224439,1044.0,1814.5454545454545,Centrs
109,109,Purvciems,Ūnijas 78,1,30.0,2/5,LT proj.,35000.0,56.9600274,24.18377093217135,993.0,1166.6666666666667,Purvciems
110,110,Purvciems,Mārcienas 6,2,57.0,4/9,119.,57000.0,56.9540573,24.1665288,926.0,1000.0,Purvciems
111,111,Purvciems,Andromedas g. 5B,1,42.0,2/5,M. ģim.,44500.0,56.9604406,24.1986457,996.0,1059.5238095238096,Purvciems
112,112,Teika,Biķernieku 24,1,35.0,1/2,P. kara,42000.0,56.9698781,24.183727,1119.0,1200.0,Teika
113,113,Āgenskalns,Ļermontova 3,2,52.0,2/2,Renov.,79500.0,56.94047275,24.07170967717864,718.0,1528.8461538461538,Āgenskalns
114,114,centrs,Stabu 77,2,51.0,5/6,P. kara,109000.0,56.95260235,24.137179285051328,920.0,2137.2549019607845,Avoti
115,115,Purvciems,Ilūkstes 101k2,2,49.0,6/9,467.,59000.0,56.95231505,24.19385587970239,932.0,1204.0816326530612,Purvciems
116,116,Zolitūde,Endzelīna 7,3,80.0,10/10,119.,75300.0,56.94677825,24.02464491193749,835.0,941.25,Zolitūde
117,117,Zolitūde,Bieziņa 7,4,96.0,6/10,119.,98000.0,56.9452295,24.02045662144952,771.0,1020.8333333333334,Zolitūde
118,118,centrs,Bruņinieku 121b,1,35.0,1/5,Renov.,70000.0,56.961172,24.1229335,1044.0,2000.0,Centrs
119,119,centrs,Dārzaugļu 1,4,111.0,6/6,Jaun.,229000.0,56.964818,24.1504388,1049.0,2063.063063063063,Grīziņkalns
120,120,Pļavnieki,Salnas 21,2,46.0,8/9,Jaun.,92000.0,56.942327,24.23009287799782,813.0,2000.0,Pļavnieki
121,121,Āgenskalns,Mērsraga 9A,2,52.0,2/3,Renov.,85830.0,56.93499105,24.06341325,654.0,1650.576923076923,Āgenskalns
122,122,Pļavnieki,Pļavnieku 9,1,54.0,4/9,Jaun.,98500.0,56.94203495,24.21275136511194,810.0,1824.074074074074,Pļavnieki
123,123,Āgenskalns,Mērsraga 9,2,48.0,1/4,Renov.,71606.0,56.9349022,24.063902286829965,654.0,1491.7916666666667,Āgenskalns
124,124,Jugla,Vidzemes al. 4,2,46.0,5/5,Hrušč.,52000.0,56.9925634,24.2424634,1446.0,1130.4347826086955,Jugla
125,125,Jugla,Mārkalnes 9,1,32.0,1/5,M. ģim.,32000.0,56.9934003,24.22881077431854,1443.0,1000.0,Jugla
126,126,Zolitūde,Apuzes 51a,3,85.0,2/3,Jaun.,169500.0,56.94199225,24.02071591989336,771.0,1994.1176470588236,Zolitūde
127,127,Vecrīga,Miesnieku 14,3,79.0,4/4,Renov.,173000.0,56.9488883,24.1023279,851.0,2189.8734177215188,Vecpilsēta
128,128,Jugla,Brīvības 405,3,59.0,4/5,Specpr.,49000.0,56.989837,24.23725981932524,1381.0,830.5084745762712,Jugla
129,129,Purvciems,Andromedas g. 12,1,28.0,4/5,LT proj.,32000.0,56.9604406,24.1986457,996.0,1142.857142857143,Purvciems
130,130,Pļavnieki,Salnas 14,1,33.0,3/9,602.,29990.0,56.94212835,24.223040747717693,812.0,908.7878787878788,Pļavnieki
131,131,Ķengarags,Pelnu 2,2,49.0,4/5,LT proj.,65000.0,56.907464700000006,24.20039794999999,366.0,1326.530612244898,Ķengarags
132,132,Teika,Ropažu 24,2,41.0,4/5,Hrušč.,45900.0,56.97824795,24.172178330511954,1242.0,1119.5121951219512,Teika
133,133,centrs,Brīvības 150,4,104.0,3/6,P. kara,129000.0,56.9537963,24.117328,917.0,1240.3846153846157,Centrs
134,134,centrs,Matīsa 93,3,91.0,6/6,P. kara,60000.0,56.9564621,24.134618,983.0,659.3406593406594,Centrs
135,135,centrs,Brīvības 66,2,47.0,5/6,P. kara,100000.0,56.9569427,24.1232516,981.0,2127.659574468085,Centrs
136,136,centrs,Blaumaņa 6,4,122.0,1/6,P. kara,270000.0,56.95531725,24.12122731547085,917.0,2213.1147540983607,Centrs
137,137,centrs,Vidus 11,3,136.0,3/5,Renov.,520000.0,56.9615303,24.10291659587181,1040.0,3823.529411764706,Centrs
138,138,Imanta,Slokas 195,2,49.0,4/5,LT proj.,50000.0,56.96237035,24.01677641136364,1022.0,1020.408163265306,Imanta
139,139,centrs,Eksporta 3,2,61.0,5/5,P. kara,121000.0,56.9607829,24.098686292714888,1039.0,1983.6065573770493,Centrs
140,140,Iļģuciems,Lidoņu 7,3,65.0,2/5,LT proj.,50000.0,56.97162175,24.06713282637923,1158.0,769.2307692307693,Iļģuciems
141,141,Āgenskalns,Kuldīgas 39,2,58.0,5/5,Specpr.,121000.0,56.9472982,24.057628800000003,842.0,2086.206896551724,Zasulauks
142,142,Pļavnieki,Kaudzīšu 10,3,63.0,5/9,602.,69000.0,56.93970899999999,24.200115123682487,744.0,1095.2380952380952,Pļavnieki
143,143,Mežciems,Juglas 100,3,63.0,1/5,Jaun.,162000.0,56.97994145,24.20473026481536,1249.0,2571.428571428572,Mežciems
144,144,centrs,Rūpniecības 27,2,54.0,1/7,Jaun.,160500.0,56.9663415,24.10326172386397,1103.0,2972.222222222222,Pētersala-Andrejsala
145,145,Vecmīlgrāvis,Dombrovska 41,1,34.0,5/9,602.,40000.0,57.0338789,24.1038405,1922.0,1176.470588235294,Vecmilgrāvis
146,146,Pļavnieki,Grestes 5,2,50.0,3/7,602.,52000.0,56.93598955,24.20972839881465,746.0,1040.0,Pļavnieki
147,147,Jugla,Tirzas 3 k-4,2,38.0,3/5,Hrušč.,33800.0,56.98889685,24.226113289464344,1379.0,889.4736842105264,Jugla
148,148,Teika,Āraišu 24,4,104.0,1/2,P. kara,158000.0,56.97405195,24.1770369,1180.0,1519.2307692307693,Teika
149,149,Purvciems,Varavīksnes g. 2,4,76.0,5/9,602.,78000.0,56.9521953,24.2048373,934.0,1026.3157894736842,Purvciems
150,150,centrs,Bruņinieku 121b,1,30.0,1/5,Renov.,64000.0,56.961172,24.1229335,1044.0,2133.333333333333,Centrs
151,151,centrs,Dzirnavu 6,3,88.0,4/4,Renov.,240000.0,56.9612002,24.10753941099076,1041.0,2727.2727272727275,Centrs
152,152,centrs,Brīvības 95,3,86.0,4/7,Renov.,189000.0,56.96131475,24.131717044166592,1045.0,2197.6744186046512,Centrs
153,153,centrs,Tērbatas 82A,2,58.0,1/6,P. kara,73000.0,56.9608672,24.13805111738441,1047.0,1258.6206896551723,Centrs
154,154,Ķengarags,Lokomotīves 74,1,31.0,2/5,Hrušč.,35000.0,56.90309005,24.21051822062977,305.0,1129.032258064516,Ķengarags
155,155,centrs,Brīvības 95,3,75.0,2/3,Renov.,171580.0,56.96131475,24.131717044166592,1045.0,2287.733333333333,Centrs
156,156,Pļavnieki,Deglava 108-3,2,58.0,3/9,119.,60000.0,56.9466236,24.2044183,871.0,1034.4827586206898,Pļavnieki
157,157,Imanta,Anniņmuižas 38 k-2,2,56.0,12/17,Jaun.,109000.0,56.9609692,24.016443262331222,1022.0,1946.4285714285716,Imanta
158,158,Āgenskalns,Liepājas 40,2,43.0,1/4,Hrušč.,55000.0,56.92935125,24.06658412109682,591.0,1279.0697674418604,Āgenskalns
159,159,centrs,Barona 24/26,3,73.0,4/6,Renov.,260000.0,56.95161295,24.12245714786153,918.0,3561.6438356164385,Centrs
160,160,Ķengarags,Prūšu 20,1,30.0,2/5,Hrušč.,34000.0,56.91425235,24.185483337505133,426.0,1133.3333333333333,Ķengarags
161,161,Imanta,Imantas 31,3,106.0,7/7,Specpr.,144000.0,56.9591697,24.027295934365863,962.0,1358.4905660377358,Imanta
162,162,Teika,Zālīša 5,2,54.0,5/5,103.,68000.0,56.9722915,24.178007,1181.0,1259.2592592592594,Teika
163,163,Āgenskalns,Āgenskalna 20,1,32.0,4/5,Hrušč.,51700.0,56.9468695,24.06506041732673,843.0,1615.625,Āgenskalns
164,164,Jugla,Silciema 7,2,44.0,2/5,Hrušč.,34500.0,56.98755415,24.23870921456892,1382.0,784.0909090909091,Jugla
165,165,Purvciems,Viršu 6,2,57.0,6/12,104.,55001.0,56.95210285,24.180505912186508,929.0,964.9298245614036,Purvciems
166,166,Jugla,Mārkalnes 1,1,18.0,3/5,Hrušč.,6700.0,56.9917901,24.2289408,1443.0,372.22222222222223,Jugla
167,167,Mežaparks,Jaunā Mežaparka 34,4,120.0,1/3,Jaun.,307000.0,56.99383675,24.15716377593282,1428.0,2558.333333333333,Mežaparks
168,168,Mežaparks,Jaunā Mežaparka 32,3,115.0,1/3,Jaun.,269700.0,56.99412125,24.15764838584528,1429.0,2345.217391304348,Mežaparks
169,169,Ķengarags,Lokomotīves 80,2,44.0,1/5,LT proj.,43000.0,56.90261215,24.212121438993705,305.0,977.2727272727273,Ķengarags
170,170,Ķengarags,Rušonu 3,1,39.0,5/5,M. ģim.,35000.0,56.9127758,24.1826852,426.0,897.4358974358975,Ķengarags
171,171,Pļavnieki,Ilūkstes 38,3,79.0,1/9,119.,65500.0,56.94537795,24.19853385,807.0,829.1139240506329,Pļavnieki
172,172,Ķengarags,Aglonas 33,3,53.0,5/5,Hrušč.,52000.0,56.9124243,24.1854421854432,426.0,981.1320754716982,Ķengarags
173,173,Purvciems,Dzelzavas 15/1,1,31.0,4/5,Hrušč.,32900.0,56.9622361,24.1716621,1053.0,1061.2903225806451,Purvciems
174,174,Jaunciems,Jaunciema g. 79,1,38.0,1/3,Specpr.,34900.0,57.0473198,24.1756587,2125.0,918.421052631579,Jaunciems
175,175,Ķengarags,Maskavas 423,1,31.0,4/5,LT proj.,36500.0,56.89988695,24.209253200000006,242.0,1177.4193548387098,Ķengarags
176,176,centrs,Valdemāra 73,3,66.0,6/6,P. kara,165000.0,56.9622133,24.1233217,1044.0,2500.0,Centrs
177,177,Purvciems,Ūnijas 70,3,60.0,2/5,LT proj.,47000.0,56.96220485,24.18099579048994,1055.0,783.3333333333334,Purvciems
178,178,Imanta,Jūrmalas g. 37a,2,53.0,2/3,Staļina,59000.0,56.9529998,24.0165749,896.0,1113.2075471698113,Imanta
179,179,Ķengarags,Maskavas 260 k-7,2,45.0,1/5,Hrušč.,29000.0,56.9076107,24.17873672970414,362.0,644.4444444444445,Ķengarags
180,180,Purvciems,Dudajeva g. 3,2,48.0,1/5,LT proj.,43000.0,56.9575254,24.1942844,995.0,895.8333333333334,Purvciems
181,181,Pļavnieki,Ilūkstes 38,4,99.0,6/9,119.,105000.0,56.94537795,24.19853385,807.0,1060.6060606060605,Pļavnieki
182,182,Iļģuciems,Lidoņu 1,3,79.0,1/3,Staļina,72000.0,56.9703268,24.07137766932911,1096.0,911.3924050632912,Iļģuciems
183,183,Mežaparks,Inčukalna 2,3,79.0,1/5,Renov.,169000.0,56.9960407,24.14246281831603,1489.0,2139.240506329114,Mežaparks
184,184,Sarkandaugava,Tvaika 54,2,42.0,1/5,Hrušč.,42500.0,57.008275,24.1229574,1611.0,1011.904761904762,Sarkandaugava
185,185,centrs,Marijas 15,3,91.0,6/6,P. kara,227500.0,56.95029005,24.12406799743038,855.0,2500.0,Centrs
186,186,Purvciems,Dzelzavas 81,2,49.0,8/9,467.,66000.0,56.957137,24.201173391462103,996.0,1346.938775510204,Purvciems
187,187,Sarkandaugava,Tilta 3,3,69.0,4/5,Specpr.,87000.0,56.99504395,24.127010310629814,1422.0,1260.8695652173913,Sarkandaugava
188,188,Vecmīlgrāvis,Stiebru 7,1,43.0,4/5,M. ģim.,30000.0,57.0348164,24.09529034976264,1920.0,697.6744186046511,Vecmilgrāvis
189,189,Teika,Bērzpils 65,3,58.0,1/2,Staļina,69900.0,56.9846638,24.197961300000003,1311.0,1205.1724137931035,Teika
190,190,Pļavnieki,Rembates 8,3,69.0,2/10,Jaun.,145000.0,56.94077425,24.230074618165425,813.0,2101.449275362319,Pļavnieki
191,191,Āgenskalns,Melnsila 20,3,59.0,5/5,Specpr.,58000.0,56.9459988,24.066092846559453,843.0,983.0508474576272,Āgenskalns
192,192,Pļavnieki,Pļavnieku 6,2,51.0,4/9,602.,68000.0,56.94192865,24.210909209797325,809.0,1333.3333333333333,Pļavnieki
193,193,Jugla,Brīvības 388,1,35.0,5/12,M. ģim.,42800.0,56.98643215,24.222461582838367,1379.0,1222.857142857143,Jugla
194,194,centrs,Lenču 2,2,57.0,2/6,P. kara,109000.0,56.9616145,24.1100341,1041.0,1912.280701754386,Centrs
195,195,Mežciems,Hipokrāta 17,1,32.0,8/9,602.,35000.0,56.96614445,24.23733730225384,1130.0,1093.75,Mežciems
196,196,Teika,Vidrižu 4,2,53.0,3/9,Renov.,84000.0,56.9788671,24.1774824079002,1244.0,1584.9056603773586,Teika
197,197,Iļģuciems,Buļļu 40b,2,42.0,3/5,Hrušč.,35000.0,56.9677411,24.05126620939312,1092.0,833.3333333333334,Iļģuciems
198,198,Ķengarags,Lokomotīves 80,3,61.0,3/5,LT proj.,46000.0,56.90261215,24.212121438993705,305.0,754.0983606557377,Ķengarags
199,199,Mežaparks,Ezermalas 4,1,18.0,4/5,Renov.,46000.0,56.99634399999999,24.170959728687947,1494.0,2555.555555555556,Mežaparks
200,200,Imanta,Anniņmuižas 54,2,51.0,3/9,602.,65000.0,56.95764855,24.00823179260924,958.0,1274.5098039215686,Imanta
201,201,Pļavnieki,Ilūkstes 4,1,45.0,9/9,M. ģim.,42980.0,56.93391825,24.196113058652745,680.0,955.1111111111112,Pļavnieki
202,202,Ziepniekkalns,Valdeķu 54/2,3,62.0,7/9,602.,59000.0,56.8985515,24.0920612,218.0,951.6129032258063,Ziepniekkalns
203,203,Mežciems,Hipokrāta 37,2,51.0,5/9,602.,62000.0,56.9597951,24.23775291738368,1004.0,1215.686274509804,Mežciems
204,204,Dārzciems,Lubānas 47,1,29.0,2/3,Hrušč.,35500.0,56.93172465000001,24.177279739567982,676.0,1224.1379310344828,Dārzciems
205,205,Imanta,Vīksnes 21,4,320.0,7/8,Jaun.,310000.0,56.95789295,24.00103547044425,956.0,968.75,Imanta
206,206,centrs,Ģertrūdes 100,2,42.0,2/5,P. kara,89000.0,56.95933,24.1190821,980.0,2119.0476190476197,Centrs
207,207,Teika,Ropažu 87,1,38.0,3/5,M. ģim.,29000.0,56.98238375,24.19034475,1309.0,763.1578947368421,Teika
208,208,Imanta,Anniņmuižas 38k3,2,56.0,8/18,Jaun.,119000.0,56.9608756,24.015701800228435,1022.0,2125.0,Imanta
209,209,Mežciems,Kaivas 50 k2,4,98.0,5/5,Jaun.,169000.0,56.9571247,24.2475937,1006.0,1724.4897959183672,Mežciems
210,210,centrs,Antonijas 16a,3,80.0,2/7,Jaun.,260000.0,56.95951295,24.11349492705972,979.0,3250.0,Centrs
211,211,Imanta,Anniņmuižas 43,3,105.0,21/24,Jaun.,195000.0,56.9589929,24.01397786996067,959.0,1857.142857142857,Imanta
212,212,Zolitūde,Ruses 14,3,79.0,4/9,119.,90500.0,56.9472328,24.00428119416181,831.0,1145.5696202531649,Zolitūde
213,213,centrs,Ģertrūdes 135,4,100.0,2/5,P. kara,134000.0,56.9582121,24.1213972,980.0,1340.0,Centrs
214,214,centrs,Bruņinieku 79B,2,34.0,1/2,P. kara,53000.0,56.9525102,24.13991867218528,921.0,1558.8235294117646,Avoti
215,215,Jugla,Murjāņu 36,2,43.0,1/5,LT proj.,35000.0,56.97863375,24.247480052995385,1258.0,813.953488372093,Jugla
216,216,Sarkandaugava,Sarkandaugavas 2,1,34.0,2/5,103.,31500.0,56.9951843,24.1265163,1422.0,926.470588235294,Sarkandaugava
217,217,Āgenskalns,Gardenes 5,2,41.0,4/5,Hrušč.,51800.0,56.92800055,24.07420528929244,593.0,1263.4146341463415,Āgenskalns
218,218,centrs,Tērbatas 6/8,3,109.0,5/6,P. kara,245000.0,56.9532451,24.1204527,917.0,2247.706422018349,Centrs
219,219,Ziepniekkalns,Valdeķu 15,2,50.0,5/5,Hrušč.,64300.0,56.9152963,24.096201565849253,408.0,1286.0,Ziepniekkalns
220,220,Mežciems,Kaivas 50,1,32.0,4/5,Jaun.,61500.0,56.9571247,24.2475937,1006.0,1921.875,Mežciems
221,221,Teika,Zemgala 80,4,96.0,4/12,Jaun.,230000.0,56.9777452,24.16604241357143,1241.0,2395.833333333333,Teika
222,222,Pļavnieki,Dravnieku 4,2,60.0,4/16,104.,87000.0,56.9433742,24.20904629661148,809.0,1450.0,Pļavnieki
223,223,Čiekurkalns,Ezermalas 2a,1,34.0,7/12,Čehu pr.,51500.0,56.9925421,24.193121253063588,1436.0,1514.7058823529412,Čiekurkalns
224,224,Mežciems,Biķernieku 216,2,53.0,3/5,103.,68000.0,56.9599931,24.2286894,1002.0,1283.0188679245282,Dreiliņi
225,225,Purvciems,Pūces 43,2,73.0,2/6,Jaun.,159900.0,56.95305905,24.189578420504844,931.0,2190.410958904109,Purvciems
226,226,Ķengarags,Maskavas 256/7,2,46.0,5/5,LT proj.,41500.0,56.8997798,24.2039578,241.0,902.1739130434784,Rumbula
227,227,Pļavnieki,Salnas 21,2,46.0,1/9,Jaun.,81500.0,56.942327,24.23009287799782,813.0,1771.7391304347825,Pļavnieki
228,228,centrs,Tērbatas 33/35,2,33.0,1/6,Renov.,88500.0,56.9552913,24.1242923,918.0,2681.818181818182,Centrs
229,229,Vecmīlgrāvis,Skuju 12,2,50.0,3/5,LT proj.,34000.0,57.03037595,24.10562754446474,1859.0,680.0,Vecmilgrāvis
230,230,Imanta,Slokas 183,2,49.0,3/9,602.,50000.0,56.9624436,24.01914687940092,1023.0,1020.408163265306,Imanta
231,231,centrs,Valdemāra 39,5,160.0,4/7,P. kara,265000.0,56.9585942,24.1172511,979.0,1656.25,Centrs
232,232,Pļavnieki,Tīnūžu 12,4,76.0,6/8,467.,62900.0,56.93400615,24.20752423188153,683.0,827.6315789473684,Pļavnieki
233,233,Purvciems,Ilūkstes 42,1,43.0,7/9,119.,50000.0,56.9488063,24.19795503270792,870.0,1162.7906976744189,Purvciems
234,234,Ķengarags,Salaspils 18,4,60.0,3/5,LT proj.,67000.0,56.9180308,24.18282595,489.0,1116.6666666666667,Ķengarags
235,235,Jaunciems,Gaileņu 2,1,23.0,1/2,P. kara,9670.0,57.04456385,24.1713785,2061.0,420.4347826086956,Jaunciems
236,236,centrs,Stabu 62,2,47.0,1/4,P. kara,94000.0,56.9528546,24.1352223,920.0,2000.0,Avoti
237,237,centrs,Artilērijas 71,3,102.0,3/4,P. kara,130000.0,56.9547483,24.14789524378508,923.0,1274.5098039215686,Grīziņkalns
238,238,centrs,Bruņinieku 88,2,43.0,4/4,P. kara,67000.0,56.961172,24.1229335,1044.0,1558.139534883721,Centrs
239,239,Ziepniekkalns,Ozolciema 18,2,60.0,7/10,119.,52500.0,56.89859735,24.08767077416605,218.0,875.0,Ziepniekkalns
240,240,centrs,Dzirnavu 10,3,88.0,3/5,Renov.,195000.0,56.9609418,24.10796360617932,1041.0,2215.909090909091,Centrs
241,241,centrs,Dzirnavu 9,2,95.0,3/4,P. kara,249000.0,56.9610245,24.1085131,1041.0,2621.0526315789475,Centrs
242,242,Purvciems,Deglava 122,3,76.0,2/9,119.,89000.0,56.9518031,24.165962,926.0,1171.0526315789473,Dārzciems
243,243,Imanta,Kleistu 11 k-1,3,77.0,7/12,Jaun.,147000.0,56.963977,24.0209203,1023.0,1909.090909090909,Imanta
244,244,Teika,Ropažu 60a,2,65.0,2/3,Staļina,85000.0,56.9807139,24.1811389,1307.0,1307.6923076923076,Teika
245,245,Āgenskalns,Liepājas 2,4,145.0,5/6,Jaun.,370000.0,56.93337015,24.07760365777052,657.0,2551.7241379310344,Āgenskalns
246,246,Iļģuciems,Vaidelotes 13,2,43.0,4/5,Hrušč.,49900.0,56.96655,24.0517451,1092.0,1160.4651162790697,Iļģuciems
247,247,centrs,Matīsa 63,2,43.0,3/7,Renov.,94905.0,56.95417925,24.13994026860536,921.0,2207.093023255814,Avoti
248,248,centrs,Brīvības 150,4,109.0,5/6,P. kara,135500.0,56.9537963,24.117328,917.0,1243.119266055046,Centrs
249,249,Ziepniekkalns,Ziepniekkalna 75,4,153.0,4/4,Jaun.,299000.0,56.901134,24.133145,290.0,1954.248366013072,Ziepniekkalns
250,250,Āgenskalns,Raņķa d. 34,3,88.0,13/22,Jaun.,243000.0,56.9450949,24.0837011,784.0,2761.3636363636365,Āgenskalns
251,251,Āgenskalns,Raņķa d. 34,3,95.0,8/22,Jaun.,221000.0,56.9450949,24.0837011,784.0,2326.315789473684,Āgenskalns
252,252,Āgenskalns,Raņķa d. 34,3,113.0,6/22,Jaun.,276000.0,56.9450949,24.0837011,784.0,2442.477876106195,Āgenskalns
253,253,Āgenskalns,Raņķa d. 34,4,133.0,14/22,Jaun.,352000.0,56.9450949,24.0837011,784.0,2646.616541353384,Āgenskalns
254,254,Āgenskalns,Raņķa d. 34,4,114.0,10/22,Jaun.,311000.0,56.9450949,24.0837011,784.0,2728.0701754385964,Āgenskalns
255,255,centrs,Republikas laukums 3,4,106.0,1/7,Jaun.,180000.0,56.9555576,24.0996114,976.0,1698.1132075471698,Centrs
256,256,Mežaparks,Inčukalna 2,2,60.0,3/4,Jaun.,139000.0,56.9960407,24.14246281831603,1489.0,2316.6666666666665,Mežaparks
257,257,centrs,Bruņinieku 121,3,63.0,3/5,Renov.,124900.0,56.961172,24.1229335,1044.0,1982.5396825396824,Centrs
258,258,Teika,Bērzpils 3,2,43.0,5/5,Hrušč.,51000.0,56.9848186,24.1978461,1311.0,1186.046511627907,Teika
259,259,centrs,Matīsa 63,2,37.0,2/7,Renov.,82935.0,56.95417925,24.13994026860536,921.0,2241.4864864864867,Avoti
260,260,centrs,Matīsa 63,2,42.0,2/7,Renov.,94050.0,56.95417925,24.13994026860536,921.0,2239.285714285714,Avoti
261,261,centrs,Marijas 23,4,116.0,2/6,P. kara,189000.0,56.951007,24.1259434,918.0,1629.3103448275865,Centrs
262,262,centrs,Elizabetes 3,6,145.0,2/5,Renov.,1475000.0,56.95953825,24.09943466669975,976.0,10172.413793103447,Centrs
263,263,Ķengarags,Ikšķiles 7k1,1,33.0,1/9,467.,48000.0,56.90369055,24.204876956309285,304.0,1454.5454545454545,Ķengarags
264,264,Sarkandaugava,Limbažu 1A,1,15.0,1/2,P. kara,12480.0,57.0007997,24.1189743,1547.0,832.0,Sarkandaugava
265,265,Imanta,Slokas 195,2,37.0,2/5,LT proj.,37000.0,56.96237035,24.01677641136364,1022.0,1000.0,Imanta
266,266,Jugla,Ūdeļu 25,2,35.0,1/2,Specpr.,45000.0,56.9762925,24.262595045416777,,1285.7142857142858,Jugla
267,267,Ziepniekkalns,Līvciema 57,2,51.0,2/9,602.,58000.0,56.901309100000006,24.102314001078938,284.0,1137.2549019607843,Ziepniekkalns
268,268,Vecmīlgrāvis,Vecmīlgrāvja 6,2,52.0,2/5,Specpr.,34920.0,57.0301964,24.1170336,1861.0,671.5384615384615,Vecmilgrāvis
269,269,Mežciems,Hipokrāta 11,1,46.0,2/16,104.,41000.0,56.9671489,24.23755090255275,1130.0,891.304347826087,Mežciems
270,270,Iļģuciems,Motoru 5,2,37.0,4/5,LT proj.,29000.0,56.9695545,24.066990643941864,1095.0,783.7837837837837,Iļģuciems
271,271,Vecmīlgrāvis,Ledus 2,1,35.0,8/9,602.,39600.0,57.03751635,24.09565913111913,1983.0,1131.428571428571,Vecmilgrāvis
272,272,Purvciems,Madonas 21,4,85.0,2/16,Specpr.,72900.0,56.96107275,24.17095887799285,1053.0,857.6470588235294,Purvciems
273,273,centrs,Stabu 46/48,3,79.0,3/6,P. kara,117000.0,56.9543322,24.1313043698515,919.0,1481.012658227848,Centrs
274,274,Dārzciems,Sitas 50,1,42.0,3/5,M. ģim.,35000.0,56.93319445,24.19388500816745,680.0,833.3333333333334,Dārzciems
275,275,Jugla,Juglas 5,2,43.0,2/5,Hrušč.,59900.0,56.9895073,24.2483362,1384.0,1393.0232558139537,Jugla
276,276,Ķengarags,Maskavas 250/1,2,42.0,4/5,Hrušč.,46500.0,56.8997798,24.2039578,241.0,1107.142857142857,Rumbula
277,277,Ķengarags,Prūšu 3/3,3,60.0,1/5,LT proj.,47000.0,56.9154281,24.1804946,425.0,783.3333333333334,Ķengarags
278,278,centrs,Barona 55,2,33.0,2/5,Renov.,82000.0,56.9565676,24.1315966,982.0,2484.848484848485,Centrs
279,279,centrs,Stabu 61,4,117.0,3/5,Renov.,210000.0,56.9533511,24.1348825,920.0,1794.871794871795,Avoti
280,280,centrs,Tērbatas 82a,1,35.0,2/5,P. kara,46000.0,56.9608672,24.13805111738441,1047.0,1314.2857142857142,Centrs
281,281,Ziepniekkalns,Līvciema 57,2,51.0,3/9,602.,82000.0,56.901309100000006,24.102314001078938,284.0,1607.843137254902,Ziepniekkalns
282,282,Mežaparks,Lībekas 21,2,36.0,2/3,Renov.,72000.0,57.00238805,24.166636811923688,1556.0,2000.0,Mežaparks
283,283,Ķengarags,Maskavas 421,2,45.0,5/5,LT proj.,38000.0,56.8994007,24.20832982701724,242.0,844.4444444444445,Ķengarags
284,284,centrs,Marijas 14a,2,34.0,5/6,Renov.,82320.0,56.9503578,24.1249375,855.0,2421.176470588235,Avoti
285,285,Imanta,Anniņmuižas 38-2,2,68.0,7/18,Jaun.,111000.0,56.9573992,24.0237329,961.0,1632.3529411764705,Imanta
286,286,Iļģuciems,Vaidelotes 24,2,50.0,5/6,Hrušč.,36000.0,56.96600195,24.048942504493155,1092.0,720.0,Iļģuciems
287,287,Ķengarags,Aviācijas 10,2,49.0,4/4,Specpr.,29800.0,56.90102465,24.20457917835229,304.0,608.1632653061224,Ķengarags
288,288,Torņakalns,Jelgavas 63,2,58.0,1/5,Jaun.,86900.0,56.9273343,24.09277970207552,597.0,1498.2758620689656,Torņakalns
289,289,Mežaparks,Lībekas 21,3,66.0,1/3,Renov.,122000.0,57.00238805,24.166636811923688,1556.0,1848.4848484848485,Mežaparks
290,290,Jugla,Murjāņu 40,1,31.0,2/5,Hrušč.,43900.0,56.9782178,24.248685114741967,1258.0,1416.1290322580646,Jugla
291,291,centrs,Valdemāra 73,3,60.0,6/6,P. kara,135000.0,56.9622133,24.1233217,1044.0,2250.0,Centrs
292,292,Āgenskalns,Raņķa d. 31,2,50.0,4/4,Renov.,89136.0,56.9450949,24.0837011,784.0,1782.72,Āgenskalns
293,293,Āgenskalns,Raņķa d. 31,2,43.0,1/4,Renov.,78048.0,56.9450949,24.0837011,784.0,1815.0697674418604,Āgenskalns
294,294,centrs,Martas 9,4,96.0,4/5,P. kara,209000.0,56.955227,24.128670987508468,919.0,2177.083333333333,Centrs
295,295,Ziepniekkalns,Valdeķu 53,3,77.0,10/10,119.,65000.0,56.9013186,24.0924634,282.0,844.1558441558442,Ziepniekkalns
296,296,Āgenskalns,Ventspils 20,1,22.0,1/2,P. kara,25500.0,56.932427,24.061654099720663,653.0,1159.090909090909,Āgenskalns
297,297,centrs,Skanstes 29,2,70.0,11/24,Jaun.,150000.0,56.9627217,24.1133633,1042.0,2142.8571428571427,Skanste
298,298,Imanta,Dammes 34,2,52.0,7/9,602.,87500.0,56.9649983,24.01057657265347,1021.0,1682.6923076923076,Imanta
299,299,Daugavgrīva,Parādes 12,2,42.0,2/2,Hrušč.,31500.0,57.04058115,24.02864323735212,2033.0,750.0,Daugavgrīva
300,300,Ķengarags,Lokomotīves 30,2,51.0,2/2,Staļina,44000.0,56.91329585,24.19243950000001,428.0,862.7450980392157,Ķengarags
301,301,Teika,Ķeguma 39,3,75.0,2/4,Jaun.,192500.0,56.966018250000005,24.19343315100701,1121.0,2566.6666666666665,Teika
302,302,centrs,Birznieka-Upīša 10,3,75.0,5/5,Renov.,199900.0,56.9487525,24.1248249,855.0,2665.333333333333,Centrs
303,303,Teika,Ropažu 12,3,124.0,5/9,Jaun.,241800.0,56.9772589,24.16674835452536,1241.0,1950.0,Teika
304,304,Āgenskalns,Smiļģa 23A,3,100.0,2/2,Priv. m.,169000.0,56.93919995,24.0781938981405,720.0,1690.0,Āgenskalns
305,305,centrs,Čaka 134,2,76.0,4/6,Jaun.,170000.0,56.9513692,24.127201,918.0,2236.842105263158,Centrs
306,306,Purvciems,Vaidavas 9,2,36.0,1/5,LT proj.,41200.0,56.9618126,24.177521935658103,1055.0,1144.4444444444443,Purvciems
307,307,Dārzciems,Nīcgales 46,2,54.0,4/5,Specpr.,49990.0,56.9458973,24.1712335,864.0,925.7407407407408,Dārzciems
308,308,Mežciems,Mežciema 52,3,62.0,8/9,602.,76000.0,56.9733965,24.238988980894696,1193.0,1225.8064516129032,Mežciems
309,309,Āgenskalns,Tapešu 55,3,60.0,3/5,LT proj.,47000.0,56.9395479,24.0538948,715.0,783.3333333333334,Āgenskalns
310,310,Bolderāja,Lielupes 1,3,55.0,1/4,Hrušč.,28000.0,57.038622450000005,24.046476020514376,1973.0,509.09090909090907,Bolderāja
311,311,Ķengarags,Ikšķiles 16,3,59.0,1/5,LT proj.,56000.0,56.90257745,24.210065257205606,305.0,949.1525423728814,Ķengarags
312,312,Imanta,Kleistu 21,2,51.0,2/9,602.,75500.0,56.96457975,24.02416819605095,1024.0,1480.3921568627452,Imanta
313,313,centrs,Stabu 29,3,95.0,4/6,P. kara,162000.0,56.9563842,24.12869599714608,982.0,1705.2631578947369,Centrs
314,314,centrs,Marijas 14A,2,31.0,6/6,Renov.,76440.0,56.9503578,24.1249375,855.0,2465.8064516129034,Avoti
315,315,Purvciems,Vējavas 9c,4,110.0,4/4,Jaun.,157000.0,56.958955,24.17026729355616,990.0,1427.2727272727273,Purvciems
316,316,Pļavnieki,Jasmuižas 18/1,3,76.0,4/9,Jaun.,146950.0,56.9378016,24.2143569,747.0,1933.5526315789475,Pļavnieki
317,317,centrs,Barona 49,4,99.0,3/7,Renov.,240000.0,56.9558435,24.1302868,982.0,2424.242424242424,Centrs
318,318,Teika,Biķernieku 6,2,46.0,2/5,Hrušč.,45950.0,56.97167975,24.1735472,1180.0,998.9130434782608,Teika
319,319,Purvciems,Žagatu 20A,4,76.0,9/9,602.,81200.0,56.96300185,24.18737805586649,1057.0,1068.421052631579,Purvciems
320,320,Zolitūde,Ruses 14,2,61.0,5/9,119.,60000.0,56.9472328,24.00428119416181,831.0,983.6065573770492,Zolitūde
321,321,Ķengarags,Rasas 30,2,50.0,1/5,LT proj.,56500.0,56.9041369,24.20719940307905,304.0,1130.0,Ķengarags
322,322,Ķengarags,Prūšu 21k2,1,18.0,2/4,M. ģim.,20000.0,56.9120328,24.19330828469377,428.0,1111.111111111111,Ķengarags
323,323,Sarkandaugava,Lāpstu 5,2,36.0,1/2,P. kara,28500.0,57.0017546,24.11932975,1547.0,791.6666666666666,Sarkandaugava
324,324,centrs,Miera 87,3,120.0,3/3,Renov.,199000.0,56.959904,24.1290166,982.0,1658.3333333333333,Centrs
325,325,Purvciems,Ūnijas 32A,1,22.0,2/2,Renov.,19500.0,56.9625569,24.1815831,1055.0,886.3636363636364,Purvciems
326,326,Teika,Brīvības 241,3,61.0,1/5,Specpr.,79500.0,56.9773995,24.1795064,1244.0,1303.27868852459,Teika
327,327,centrs,Tallinas 86,2,45.0,3/5,Renov.,119000.0,56.95652115,24.147680900018845,986.0,2644.4444444444443,Grīziņkalns
328,328,Purvciems,Madonas 2,2,48.0,4/5,Jaun.,93000.0,56.95944105,24.16663604437773,989.0,1937.5,Purvciems
329,329,Purvciems,Dzelzavas 15/2,1,30.0,3/6,Hrušč.,41000.0,56.9542345,24.2065519,934.0,1366.6666666666667,Purvciems
330,330,Purvciems,Dzelzavas 81,3,58.0,6/9,467.,75000.0,56.957137,24.201173391462103,996.0,1293.103448275862,Purvciems
331,331,Ziepniekkalns,Ozolciema 8,1,30.0,11/12,M. ģim.,32000.0,56.8989409,24.08338925773728,217.0,1066.6666666666667,Ziepniekkalns
332,332,Vecmīlgrāvis,Emmas 3A,3,58.0,1/5,Specpr.,39900.0,57.02896975,24.106602271531305,1859.0,687.9310344827586,Vecmilgrāvis
333,334,centrs,Republikas laukums 3,3,103.0,4/7,Jaun.,450000.0,56.9555576,24.0996114,976.0,4368.932038834952,Centrs
334,335,Pļavnieki,Jasmuižas 4,3,62.0,7/9,602.,60000.0,56.93733685,24.208136002969297,746.0,967.741935483871,Pļavnieki
335,336,Pļavnieki,Lubānas 115,1,44.0,7/9,M. ģim.,39000.0,56.9411711,24.237357,815.0,886.3636363636364,Šķirotava
336,337,Purvciems,Kalsnavas 1,3,61.0,9/6,602.,61000.0,56.9546319,24.17088585,927.0,1000.0,Purvciems
337,338,Ķengarags,Prūšu 38,2,49.0,5/5,Hrušč.,54000.0,56.9110269,24.191909299999995,427.0,1102.0408163265306,Ķengarags
338,339,centrs,Stabu 49a,3,80.0,1/6,Renov.,103040.0,56.954615,24.1323044,920.0,1288.0,Centrs
339,340,Imanta,Slokas 134,3,61.0,1/9,602.,57500.0,56.96338525,24.0085406124131,1021.0,942.6229508196722,Imanta
340,341,Iļģuciems,Grīvas 9,2,42.0,5/6,Hrušč.,30000.0,56.9659757,24.05035945,1092.0,714.2857142857143,Iļģuciems
341,342,Ķengarags,Bultu 2,3,63.0,3/5,Jaun.,195000.0,56.9068471,24.191013064024013,364.0,3095.2380952380954,Ķengarags
342,343,Purvciems,Deglava 61,3,101.0,5/10,Jaun.,185000.0,56.9518031,24.165962,926.0,1831.683168316832,Dārzciems
343,344,Āgenskalns,Kalnciema 114,1,34.0,3/5,Hrušč.,35000.0,56.9453372,24.0731765,782.0,1029.4117647058824,Āgenskalns
344,345,Purvciems,Dudajeva g. 3,3,66.0,1/5,LT proj.,58000.0,56.9575254,24.1942844,995.0,878.7878787878788,Purvciems
345,346,centrs,Stabu 46/48,2,52.0,6/6,P. kara,89000.0,56.9543322,24.1313043698515,919.0,1711.5384615384614,Centrs
346,347,centrs,Bruņinieku 79,2,34.0,1/2,P. kara,53000.0,56.9523491,24.13954190857615,921.0,1558.8235294117646,Avoti
347,348,Ķengarags,Maskavas 256,1,31.0,5/5,LT proj.,29000.0,56.9102534,24.17626616769989,361.0,935.483870967742,Ķengarags
348,349,Imanta,Rigondas g. 3,4,79.0,2/12,Čehu pr.,77000.0,56.9648381,24.0191151,1023.0,974.6835443037976,Imanta
349,350,centrs,Valdemāra 73,5,132.0,6/6,P. kara,290000.0,56.9622133,24.1233217,1044.0,2196.969696969697,Centrs
350,351,Ziepniekkalns,Ozolciema 8,1,28.0,5/12,Specpr.,33500.0,56.8989409,24.08338925773728,217.0,1196.428571428571,Ziepniekkalns
351,352,Teika,Ropažu 93,2,27.0,1/2,P. kara,29500.0,56.9825039,24.19176930406028,1309.0,1092.5925925925926,Teika
352,353,Ziepniekkalns,Bikstu 6,3,109.0,1/6,Jaun.,140000.0,56.9081142,24.0842045,343.0,1284.403669724771,Atgāzene
353,354,Iļģuciems,Dzirciema 31,1,32.0,1/12,Specpr.,43800.0,56.9654495,24.0569372,1030.0,1368.75,Iļģuciems
354,355,centrs,Valdemāra 72,5,107.0,3/4,P. kara,156000.0,56.9681719,24.13205067408257,1108.0,1457.943925233645,Brasa
355,356,Āgenskalns,Raņķa d. 34,3,91.0,11/22,Jaun.,285000.0,56.9450949,24.0837011,784.0,3131.868131868132,Āgenskalns
356,357,Āgenskalns,Raņķa d. 34,3,80.0,8/22,Jaun.,203000.0,56.9450949,24.0837011,784.0,2537.5,Āgenskalns
357,358,Jugla,Brīvības 449,2,67.0,1/2,Staļina,56500.0,56.9907911,24.2466615,1446.0,843.2835820895523,Jugla
358,359,Iļģuciems,Dzirciema 61,3,62.0,8/9,467.,54000.0,56.96331115,24.05423811540512,1030.0,870.9677419354839,Iļģuciems
359,360,Jugla,Juglas 2E,3,124.0,7/9,Specpr.,140000.0,56.9887684,24.2452953,1383.0,1129.032258064516,Jugla
360,361,Berģi,Brīvības 449,2,67.0,2/2,Staļina,51300.0,56.9959179,24.2634877,,765.6716417910447,Berģi
361,362,Berģi,Brīvības 446,4,186.0,3/3,Jaun.,350000.0,56.9959179,24.2634877,,1881.720430107527,Berģi
362,363,Zolitūde,Anniņmuižas 6,3,75.0,13/16,104.,92000.0,56.9464124,24.01023954317724,832.0,1226.6666666666667,Zolitūde
363,364,Iļģuciems,Lilijas 8,2,39.0,5/5,LT proj.,42500.0,56.9650304,24.06595852563904,1032.0,1089.7435897435898,Iļģuciems
364,365,Purvciems,Vaidavas 2,2,41.0,5/5,Hrušč.,44900.0,56.9651158,24.17605013260422,1054.0,1095.121951219512,Purvciems
365,366,Iļģuciems,Dzirciema 89,2,48.0,3/5,LT proj.,49000.0,56.9671678,24.056959682256256,1093.0,1020.8333333333334,Iļģuciems
366,367,Jugla,Brīvības 367,2,46.0,4/5,Hrušč.,67000.0,56.9878569,24.21971367934781,1378.0,1456.5217391304348,Jugla
367,368,Purvciems,Ilūkstes 32,3,79.0,3/9,119.,82700.0,56.9493874,24.1970802,869.0,1046.8354430379748,Purvciems
368,369,Ķengarags,Maskavas 423,2,44.0,1/5,LT proj.,48000.0,56.89988695,24.209253200000006,242.0,1090.909090909091,Ķengarags
369,370,Ķengarags,Kaņiera 4a,2,39.0,2/5,LT proj.,42000.0,56.91471065,24.17255164290825,424.0,1076.923076923077,Ķengarags
370,371,Dārziņi,Jāņogu 73,1,45.0,1/2,P. kara,20000.0,56.86542915,24.25742002647458,,444.44444444444446,Dārziņi
371,372,Ķengarags,Aglonas 31,1,31.0,2/5,Hrušč.,29000.0,56.9127093,24.184851050467408,426.0,935.483870967742,Ķengarags
372,373,Pļavnieki,Ilūkstes 99,2,54.0,15/17,Specpr.,51000.0,56.9472302,24.1946972,869.0,944.4444444444443,Dārzciems
373,374,centrs,Valdemāra 89,3,85.0,5/5,P. kara,150000.0,56.96383885,24.12586466791548,1044.0,1764.7058823529412,Centrs
374,375,Bolderāja,Finiera 23,2,53.0,4/5,103.,45000.0,57.02753815,24.05440249532691,1849.0,849.0566037735849,Bolderāja
375,376,Pļavnieki,Ilūkstes 12,1,31.0,5/6,602.,32000.0,56.93717765,24.19580517644372,743.0,1032.258064516129,Pļavnieki
376,377,centrs,Cēsu 13,1,25.0,1/2,P. kara,31500.0,56.9633315,24.1364109,1046.0,1260.0,Centrs
377,378,Ziepniekkalns,Bērzlapu 2,2,49.0,14/16,104.,59800.0,56.9052096,24.084553450861744,280.0,1220.408163265306,Ziepniekkalns
378,379,centrs,Ģertrūdes 91,3,82.0,2/5,P. kara,145000.0,56.9582121,24.1213972,980.0,1768.2926829268292,Centrs
379,380,centrs,Vidus 11,3,119.0,2/5,Renov.,365000.0,56.9615303,24.10291659587181,1040.0,3067.2268907563025,Centrs
380,381,Jugla,Murjāņu 38,2,47.0,2/5,Hrušč.,54000.0,56.97808055,24.247249000000004,1257.0,1148.936170212766,Jugla
381,382,Purvciems,Mārcienas 2,4,94.0,8/9,119.,118800.0,56.95482635,24.16659158466366,926.0,1263.8297872340424,Purvciems
382,383,Vecmīlgrāvis,Vecmīlgrāvja 8,2,55.0,5/5,Hrušč.,55000.0,57.0307397,24.1171126,1924.0,1000.0,Vecmilgrāvis
383,384,Ķengarags,Maskavas 268,1,35.0,5/5,Hrušč.,38000.0,56.90549305,24.18688131314538,300.0,1085.7142857142858,Ķengarags
384,385,Vecmīlgrāvis,Staru 15,2,50.0,4/5,LT proj.,35000.0,57.03286945,24.101096724268672,1921.0,700.0,Vecmilgrāvis
385,386,centrs,Dzirnavu 53,3,107.0,2/6,P. kara,278000.0,56.9565341,24.1171801,979.0,2598.1308411214955,Centrs
386,387,Bolderāja,Dolomīta 4,2,46.0,1/5,Hrušč.,32999.0,57.0261116,24.038598783164552,1846.0,717.3695652173913,Bolderāja
387,388,centrs,Martas 7,2,70.0,2/7,Specpr.,208600.0,56.9553717,24.1281063609436,919.0,2980.0,Centrs
388,389,Mežciems,Biķernieku 278,4,134.0,2/2,Jaun.,165000.0,56.9599931,24.2286894,1002.0,1231.3432835820895,Dreiliņi
389,390,Purvciems,Dzelzavas 68,2,50.0,5/16,Jaun.,96000.0,56.9565554,24.1866839,993.0,1920.0,Purvciems
390,391,Mežciems,Biķernieku 230,1,39.0,2/5,103.,27500.0,56.9599931,24.2286894,1002.0,705.1282051282051,Dreiliņi
391,392,Ķengarags,Glūdas 2,1,31.0,1/5,Hrušč.,40900.0,56.91129605,24.17345340573277,424.0,1319.354838709677,Ķengarags
392,393,Ķengarags,Prūšu 11,2,47.0,5/5,Specpr.,45000.0,56.91416455,24.18728847131392,426.0,957.4468085106384,Ķengarags
393,394,Vecrīga,Vāgnera 16,3,97.0,2/3,P. kara,249000.0,56.9486094,24.11191593141932,852.0,2567.01030927835,Vecpilsēta
394,395,Purvciems,Viršu 1,2,58.0,1/9,119.,55000.0,56.95277615,24.176513679515224,928.0,948.2758620689656,Purvciems
395,396,Sarkandaugava,Tvaika 54k2,1,29.0,3/5,Hrušč.,32000.0,57.00806935,24.123749323750808,1611.0,1103.448275862069,Sarkandaugava
396,397,Pļavnieki,Dravnieku 3,3,66.0,5/10,Jaun.,141573.0,56.9444422,24.2106569,809.0,2145.0454545454545,Pļavnieki
397,398,Ķengarags,Lokomotīves 60,3,54.0,1/5,LT proj.,53500.0,56.90699225,24.20361426328237,367.0,990.7407407407408,Ķengarags
398,399,Teika,Ūnijas 24,3,68.0,4/7,103.,92000.0,56.9673959,24.170968961354586,1116.0,1352.9411764705883,Teika
399,400,Āgenskalns,Liepājas 78c,1,48.0,3/4,Jaun.,79800.0,56.9318783,24.0712635,655.0,1662.5,Āgenskalns
400,401,Pļavnieki,Saharova 15,2,53.0,12/12,104.,50800.0,56.93679455,24.20183697226337,744.0,958.490566037736,Pļavnieki
401,402,centrs,Vidus 2,3,69.0,4/5,P. kara,175000.0,56.9613279,24.1011677,1039.0,2536.231884057971,Centrs
402,403,Daugavgrīva,Zvīņu 6,3,58.0,5/5,Hrušč.,40000.0,57.0374654,24.0247952,1969.0,689.6551724137931,Daugavgrīva
403,404,centrs,Ģertrūdes 105 k-1,5,190.0,7/7,Specpr.,220000.0,56.9563739,24.1245492,981.0,1157.8947368421052,Centrs
404,405,Ķengarags,Lokomotīves 52,1,34.0,6/12,Čehu pr.,30000.0,56.9081303,24.20186153910369,366.0,882.3529411764706,Ķengarags
405,406,Pļavnieki,Deglava 106\1,3,79.0,3/9,119.,69000.0,56.9449622,24.2172449,810.0,873.4177215189874,Pļavnieki
406,407,Teika,Laimdotas 38,4,90.0,3/4,Jaun.,241000.0,56.9668863,24.1853874,1119.0,2677.777777777778,Teika
407,408,Bolderāja,Finiera 9,2,56.0,5/5,103.,54000.0,57.0275458,24.05071363475914,1848.0,964.2857142857144,Bolderāja
408,409,Grīziņkalns,Vārnu 16,2,46.0,5/5,103.,75000.0,56.95902825,24.15048731913034,986.0,1630.4347826086955,Grīziņkalns
409,410,Teika,Laimdotas 38,3,67.0,2/4,Jaun.,182800.0,56.9668863,24.1853874,1119.0,2728.358208955224,Teika
410,411,Pļavnieki,Ulbrokas 12 k2,2,80.0,5/8,Jaun.,150000.0,56.9411911,24.21941785294508,811.0,1875.0,Pļavnieki
411,412,Vecmīlgrāvis,Ledus 2,3,63.0,1/9,602.,56000.0,57.03751635,24.09565913111913,1983.0,888.8888888888889,Vecmilgrāvis
412,413,Imanta,Kleistu 11,3,72.0,4/15,Jaun.,169500.0,56.96325465,24.02210360870407,1023.0,2354.1666666666665,Imanta
413,414,Purvciems,Vaidavas 17,3,59.0,1/5,LT proj.,52500.0,56.960791400000005,24.176034466421825,1054.0,889.8305084745763,Purvciems
414,415,Iļģuciems,Dzirciema 70,1,31.0,3/5,Hrušč.,25900.0,56.96629975,24.05803806717441,1094.0,835.483870967742,Iļģuciems
415,416,Torņakalns,Jelgavas 52b,1,20.0,1/2,P. kara,17500.0,56.929317350000005,24.09593971455664,597.0,875.0,Torņakalns
416,417,Sarkandaugava,Sarkandaugavas 5,2,45.0,1/5,Specpr.,49000.0,56.99761095,24.123248326350968,1485.0,1088.888888888889,Sarkandaugava
417,418,Purvciems,Zvaigznāja g. 1,3,68.0,3/5,LT proj.,81700.0,56.9528067,24.2062064,934.0,1201.470588235294,Purvciems
418,419,Mežaparks,Lībekas 21,4,98.0,3/3,Renov.,175000.0,57.00238805,24.166636811923688,1556.0,1785.7142857142858,Mežaparks
419,420,centrs,Tallinas 79,2,69.0,1/5,P. kara,95000.0,56.9570023,24.14795128739946,986.0,1376.8115942028985,Grīziņkalns
420,421,Pļavnieki,Deglava 122,4,94.0,9/9,119.,110000.0,56.94697085,24.198139382185417,870.0,1170.212765957447,Pļavnieki
421,422,Purvciems,Nīcgales 4,3,61.0,5/9,602.,72000.0,56.95855125,24.175387470071428,991.0,1180.327868852459,Purvciems
422,423,Ķengarags,Bultu 3,2,50.0,9/9,467.,46000.0,56.9078304,24.19045705057927,364.0,920.0,Ķengarags
423,424,Pļavnieki,Rudens 8,3,62.0,1/9,602.,55000.0,56.937662,24.19829488500103,744.0,887.0967741935484,Pļavnieki
424,425,Vecmīlgrāvis,Stiebru 3,1,42.0,1/5,M. ģim.,23000.0,57.03437255,24.094572182456588,1920.0,547.6190476190476,Vecmilgrāvis
425,426,Purvciems,Pūces 45,2,82.0,1/9,Jaun.,138000.0,56.9527733,24.190820384773847,931.0,1682.9268292682927,Purvciems
426,427,Purvciems,Purvciema 20,2,61.0,9/9,119.,82000.0,56.95319905,24.170301062500045,927.0,1344.2622950819673,Purvciems
427,428,Imanta,Slokas 187,2,50.0,4/9,602.,50000.0,56.96226365,24.01830471385544,1023.0,1000.0,Imanta
428,429,Teika,Raunas 35/3,2,50.0,4/5,Specpr.,46000.0,56.9699511,24.1714582,1116.0,920.0,Teika
429,430,Purvciems,Kastrānes 1/2,1,26.0,3/5,Renov.,69000.0,56.9659974,24.1766569,1117.0,2653.846153846154,Teika
430,431,Pļavnieki,Kaudzīšu 24,1,32.0,1/9,602.,32500.0,56.939745,24.204337,745.0,1015.625,Pļavnieki
431,432,Ķengarags,Ķengaraga 5,1,30.0,4/5,LT proj.,36500.0,56.916055400000005,24.16974215241804,486.0,1216.6666666666667,Ķengarags
432,433,Teika,Brīvības 236,2,60.0,5/5,Specpr.,79000.0,56.9738101,24.170066589282133,1179.0,1316.6666666666667,Teika
433,434,Imanta,Dammes 30,3,66.0,3/5,LT proj.,55900.0,56.9653262,24.011869486161416,1021.0,846.969696969697,Imanta
434,435,Teika,Ūnijas 30,2,54.0,5/5,Specpr.,76450.0,56.96702145,24.17228684552264,1116.0,1415.7407407407406,Teika
435,436,Purvciems,Andromedas g. 5,1,28.0,5/5,LT proj.,30000.0,56.9604406,24.1986457,996.0,1071.428571428571,Purvciems
436,437,Mežciems,Malienas 1k-2,3,158.0,1/4,Jaun.,315000.0,56.9747477,24.228160456868665,1191.0,1993.6708860759493,Mežciems
437,438,centrs,Republikas laukums 3,3,107.0,5/6,Jaun.,348000.0,56.9555576,24.0996114,976.0,3252.336448598131,Centrs
438,439,centrs,Tomsona 25,2,41.0,5/5,Hrušč.,59500.0,56.9659839,24.1258447,1107.0,1451.219512195122,Centrs
439,440,Purvciems,Braslas 53,2,49.0,1/6,Jaun.,87000.0,56.95747179999999,24.16698908820361,989.0,1775.5102040816328,Purvciems
440,441,centrs,Brīvības 148,2,58.0,2/5,P. kara,75000.0,56.9537963,24.117328,917.0,1293.103448275862,Centrs
441,442,centrs,Birznieka-Upīša 20A,4,131.0,5/7,Jaun.,239860.0,56.9487525,24.1248249,855.0,1830.9923664122136,Centrs
442,443,Šampēteris-Pleskodāle,Irlavas 12,2,54.0,1/5,104.,58000.0,56.9403406,24.0350842,711.0,1074.074074074074,Pleskodāle
443,444,Āgenskalns,Alīses 10,2,46.0,3/5,Hrušč.,79000.0,56.9470505,24.06595997447654,843.0,1717.391304347826,Āgenskalns
444,445,Imanta,Slokas 195,2,51.0,3/5,LT proj.,45500.0,56.96237035,24.01677641136364,1022.0,892.156862745098,Imanta
445,446,Jugla,Silciema 13,3,56.0,1/5,LT proj.,46900.0,56.98601545,24.23942087217935,1382.0,837.5,Jugla
446,447,Mežaparks,Inčukalna 2,4,84.0,2/5,Renov.,199000.0,56.9960407,24.14246281831603,1489.0,2369.0476190476197,Mežaparks
447,448,Pļavnieki,Pļavnieku 2d,1,46.0,5/12,104.,39000.0,56.94172435,24.208586960998204,809.0,847.8260869565217,Pļavnieki
448,449,Sarkandaugava,Patversmes 3/1,1,43.0,6/6,M. ģim.,31000.0,56.990941,24.1329725,1424.0,720.9302325581396,Sarkandaugava
449,450,Vecmīlgrāvis,Kalngales 6,2,52.0,2/9,602.,46600.0,57.0391219,24.10282369160808,1985.0,896.1538461538462,Vecmilgrāvis
450,451,Purvciems,Kastrānes 1,1,16.0,1/5,Renov.,25700.0,56.9659974,24.1766569,1117.0,1606.25,Teika
451,452,Ķengarags,Salaspils 6,1,31.0,2/2,LT proj.,40000.0,56.9224989,24.1797086,551.0,1290.3225806451612,Ķengarags
452,453,Sarkandaugava,Ziemeļu 3,3,78.0,1/6,Renov.,99800.0,56.999203300000005,24.11881692500331,1484.0,1279.4871794871794,Sarkandaugava
453,454,Ziepniekkalns,Ziepniekkalna 64/1,2,71.0,1/5,Jaun.,125000.0,56.901134,24.133145,290.0,1760.56338028169,Ziepniekkalns
454,455,Jugla,Murjāņu 48,2,45.0,2/5,LT proj.,38900.0,56.9777671,24.250166840644773,1258.0,864.4444444444445,Jugla
455,456,centrs,Akas 2,3,61.0,4/4,P. kara,95000.0,56.9557572,24.1237349,981.0,1557.377049180328,Centrs
456,457,Purvciems,Purvciema 53,1,42.0,8/9,M. ģim.,36900.0,56.9543059,24.17911070525553,929.0,878.5714285714286,Purvciems
457,458,centrs,Brīvības 99a,2,32.0,4/5,P. kara,48000.0,56.9614481,24.1323024,1046.0,1500.0,Centrs
458,459,Torņakalns,Bauskas 29k2,2,100.0,6/5,103.,120000.0,56.921327,24.09535874455335,534.0,1200.0,Torņakalns
459,460,Purvciems,Dzelzavas 37,4,74.0,1/9,602.,58500.0,56.95922675,24.18208701620616,992.0,790.5405405405405,Purvciems
460,461,Imanta,Kurzemes pr. 106,3,63.0,9/9,602.,68500.0,56.9573979,24.0351632,963.0,1087.3015873015872,Imanta
461,462,Ķengarags,Aviācijas 6,2,56.0,1/3,Staļina,59000.0,56.90202975,24.20330240000001,304.0,1053.571428571429,Ķengarags
462,463,Zolitūde,Bieziņa 3,2,56.0,9/10,119.,48000.0,56.94454465,24.01739264995262,771.0,857.1428571428571,Zolitūde
463,464,Iļģuciems,Buļļu 42a,1,44.0,7/9,104.,39000.0,56.9682471,24.0497274,1092.0,886.3636363636364,Iļģuciems
464,465,Purvciems,Dzelzavas 37,2,49.0,3/9,602.,46500.0,56.95922675,24.18208701620616,992.0,948.9795918367348,Purvciems
465,466,Pļavnieki,Tīnūžu 14,3,63.0,7/9,602.,62000.0,56.93408535,24.20825948017022,683.0,984.126984126984,Pļavnieki
466,467,Purvciems,Viršu 4,2,60.0,4/12,104.,64900.0,56.952352000000005,24.179609624266007,929.0,1081.6666666666667,Purvciems
467,468,Iļģuciems,Dzirciema 61,2,48.0,8/9,467.,56500.0,56.96331115,24.05423811540512,1030.0,1177.0833333333333,Iļģuciems
468,469,centrs,Tallinas 57,2,52.0,2/3,P. kara,53000.0,56.9606081,24.14135246209069,1047.0,1019.2307692307692,Grīziņkalns
469,470,centrs,Tallinas 57 k-1,2,47.0,2/3,P. kara,45900.0,56.9604177,24.14166064868572,984.0,976.5957446808512,Grīziņkalns
470,471,centrs,Tomsona 2,3,113.0,1/6,P. kara,165000.0,56.96346405,24.12405597786933,1044.0,1460.1769911504423,Centrs
471,472,Ķengarags,Maskavas 256,2,44.0,3/5,Hrušč.,40000.0,56.9102534,24.17626616769989,361.0,909.0909090909092,Ķengarags
472,473,Teika,Palmu 7,3,80.0,2/9,Specpr.,88500.0,56.979271,24.18067963870989,1244.0,1106.25,Teika
473,474,Pļavnieki,Pavasara g. 6,3,64.0,7/9,602.,72000.0,56.9346184,24.198101,681.0,1125.0,Pļavnieki
474,475,Ķengarags,Ikšķiles 11,2,50.0,5/5,LT proj.,38500.0,56.90356345,24.20637898010604,304.0,770.0,Ķengarags
475,476,Zasulauks,Vecā Jūrmalas g. 1b,1,36.0,8/12,Čehu pr.,45000.0,56.9511873,24.0464082,902.0,1250.0,Zasulauks
476,477,Purvciems,Purvciema 40,1,40.0,3/5,M. ģim.,30000.0,56.9533911,24.175018,928.0,750.0,Purvciems
477,478,Ķengarags,Višķu 13,1,32.0,2/5,LT proj.,37500.0,56.8999122,24.212410100000007,243.0,1171.875,Ķengarags
478,479,Purvciems,Stirnu 39,3,60.0,4/5,LT proj.,69300.0,56.961021,24.188230924482184,1057.0,1155.0,Purvciems
479,480,Jugla,Murjāņu 56,3,59.0,3/5,LT proj.,53000.0,56.97781945,24.25242755000004,1259.0,898.3050847457627,Jugla
480,481,Purvciems,Dudajeva g. 5,2,54.0,5/5,LT proj.,56000.0,56.9575254,24.1942844,995.0,1037.037037037037,Purvciems
481,482,Jugla,Salamandras 8,3,63.0,2/2,P. kara,70000.0,56.992751,24.230124898383536,1443.0,1111.111111111111,Jugla
482,483,centrs,Elizabetes 35,3,88.0,4/4,P. kara,298000.0,56.9577118,24.1116462,978.0,3386.3636363636365,Centrs
483,484,centrs,Brīvības 234,3,93.0,2/5,P. kara,155000.0,56.9537963,24.117328,917.0,1666.6666666666667,Centrs
484,485,Imanta,Jūrmalas g. 93,2,50.0,2/9,602.,55000.0,56.9529998,24.0165749,896.0,1100.0,Imanta
485,486,Ķengarags,Maskavas 250 K-1,2,42.0,4/5,Hrušč.,38000.0,56.9169978,24.17341246500332,487.0,904.7619047619048,Ķengarags
486,487,Imanta,Zentenes 5,2,50.0,9/7,602.,70000.0,56.958028,24.00703663594565,957.0,1400.0,Imanta
487,488,Iļģuciems,Spilves 3,2,50.0,1/2,Staļina,52000.0,56.97237245,24.06322575,1158.0,1040.0,Iļģuciems
488,489,Dārzciems,Lubānas 56a,3,64.0,4/9,602.,66600.0,56.931259,24.17695214668675,676.0,1040.625,Dārzciems
489,490,Teika,Brīvības 225A,3,46.0,1/5,Hrušč.,84900.0,56.9763625,24.174435889622824,1243.0,1845.6521739130435,Teika
490,491,Imanta,Slokas 205 а,3,73.0,3/5,LT proj.,93000.0,56.9624275,24.009397473206263,1021.0,1273.972602739726,Imanta
491,492,centrs,Maskavas 57,2,64.0,1/3,P. kara,58888.0,56.94620965,24.13601347431321,857.0,920.125,Maskavas forstate
492,493,Teika,Brīvības 338,6,217.0,9/10,Jaun.,256789.0,56.9805118,24.192253,1246.0,1183.3594470046082,Teika
493,494,centrs,Stabu 2A,1,28.0,2/7,Jaun.,95500.0,56.95950995,24.121468824548547,980.0,3410.714285714286,Centrs
494,495,Āgenskalns,Mārupes 8,1,25.0,2/4,P. kara,49000.0,56.9343008,24.0713936,655.0,1960.0,Āgenskalns
495,496,Jugla,Vidzemes al. 6,2,36.0,5/5,Hrušč.,37000.0,56.9925634,24.2424634,1446.0,1027.7777777777778,Jugla
496,497,Iļģuciems,Dagmāras 18,2,55.0,3/5,Specpr.,45000.0,56.9644513,24.062603165749405,1032.0,818.1818181818181,Iļģuciems
497,498,Pļavnieki,Zemes 11,3,63.0,7/9,602.,60000.0,56.9426526,24.20069179999998,807.0,952.3809523809524,Pļavnieki
498,499,centrs,Čaka 26,1,26.0,5/6,Renov.,73400.0,56.95148825,24.127844387101327,919.0,2823.076923076923,Avoti
499,500,Ziepniekkalns,Valdeķu 13 k-2,2,48.0,3/3,Hrušč.,39700.0,56.9165554,24.095990344448275,471.0,827.0833333333334,Ziepniekkalns
500,501,centrs,Čaka 26,2,40.0,2/6,P. kara,105920.0,56.95148825,24.127844387101327,919.0,2648.0,Avoti
501,502,Purvciems,Madonas 23,2,61.0,16/16,Specpr.,60900.0,56.9611283,24.171955631006007,1053.0,998.360655737705,Purvciems
502,503,Daugavgrīva,Birzes 40,2,53.0,2/5,103.,37900.0,57.0372628,24.02827980616405,1970.0,715.0943396226415,Daugavgrīva
503,504,Dārzciems,Nīcgales 46,2,51.0,1/9,602.,53500.0,56.9458973,24.1712335,864.0,1049.0196078431372,Dārzciems
504,505,centrs,Brīvības 114,2,55.0,1/6,P. kara,72000.0,56.9619771,24.1348346,1046.0,1309.090909090909,Centrs
505,506,Purvciems,Deglava 53,3,76.0,2/9,119.,68000.0,56.9518031,24.165962,926.0,894.7368421052631,Dārzciems
506,507,Sarkandaugava,Ceļinieku 12,1,22.0,2/2,P. kara,14000.0,56.996822050000006,24.12806361327168,1486.0,636.3636363636364,Sarkandaugava
507,508,centrs,Valdemāra 106,1,37.0,3/5,Staļina,70000.0,56.9565184,24.1138584,979.0,1891.891891891892,Centrs
508,509,centrs,Matīsa 89a,3,80.0,2/5,P. kara,85000.0,56.9564621,24.134618,983.0,1062.5,Centrs
509,510,centrs,Tērbatas 59/61,4,98.0,3/6,P. kara,310000.0,56.9578128,24.1300556,982.0,3163.265306122449,Centrs
510,511,Sarkandaugava,Tvaika 54-4,3,72.0,1/5,Specpr.,43000.0,57.0104416,24.1245318,1611.0,597.2222222222222,Sarkandaugava
511,512,centrs,Stabu 61,4,80.0,3/5,P. kara,117000.0,56.9533511,24.1348825,920.0,1462.5,Avoti
512,513,Ziepniekkalns,Bauskas 158,1,25.0,1/2,P. kara,11890.0,56.9137741,24.1192507,413.0,475.6,Ziepniekkalns
513,514,Ziepniekkalns,Ziepniekkalna 75,3,78.0,1/4,Jaun.,189000.0,56.901134,24.133145,290.0,2423.076923076923,Ziepniekkalns
514,515,Mangaļsala,Bākas 19,2,62.0,2/5,Specpr.,29500.0,57.05285615,24.069736662362104,2167.0,475.8064516129032,Mangaļsala
515,516,Ķengarags,Glūdas 8,1,36.0,4/5,LT proj.,37900.0,56.912411500000005,24.174237413044736,424.0,1052.7777777777778,Ķengarags
516,517,centrs,Barona 80,2,45.0,1/5,P. kara,73000.0,56.957651600000005,24.134578988114114,983.0,1622.2222222222222,Centrs
517,518,Purvciems,Viršu 1,3,79.0,3/9,119.,107000.0,56.95277615,24.176513679515224,928.0,1354.4303797468351,Purvciems
518,519,Ķengarags,Prūšu 42,2,44.0,3/4,Specpr.,34000.0,56.90991145,24.194353321605504,365.0,772.7272727272727,Ķengarags
519,520,Jaunciems,Jaunciema g. 159,1,25.0,2/3,P. kara,15850.0,57.0473198,24.1756587,2125.0,634.0,Jaunciems
520,521,Ziepniekkalns,Ozolciema 24k-1,1,46.0,3/10,119.,49000.0,56.89929115,24.089261979035754,218.0,1065.2173913043478,Ziepniekkalns
521,522,Ķengarags,Ķengaraga 7,3,62.0,2/5,LT proj.,63000.0,56.91540865,24.169417552058327,423.0,1016.1290322580644,Ķengarags
522,523,Iļģuciems,Skodas 4,2,47.0,3/5,LT proj.,45000.0,56.971073700000005,24.05275417573119,1156.0,957.4468085106384,Iļģuciems
523,524,Sarkandaugava,Sīmaņa 11 k-1,2,54.0,4/4,Hrušč.,50000.0,56.99413505,24.13038536666287,1423.0,925.925925925926,Sarkandaugava
524,525,Jugla,Umurgas 26,2,42.0,1/5,LT proj.,38000.0,56.9838331,24.2455255,1320.0,904.7619047619048,Jugla
525,526,Purvciems,Purvciema 50,1,40.0,5/5,M. ģim.,32500.0,56.9545273,24.185579127051785,930.0,812.5,Purvciems
526,527,centrs,Stabu 116,2,31.0,3/5,P. kara,77500.0,56.9599606,24.1209763,980.0,2500.0,Centrs
527,528,Bolderāja,Stagaru 4,1,36.0,2/5,Specpr.,41000.0,57.02965155,24.035975194523694,1845.0,1138.888888888889,Bolderāja
528,529,centrs,Eksporta 16,2,42.0,3/5,Hrušč.,56000.0,56.9593516,24.0983542,976.0,1333.3333333333333,Centrs
529,530,centrs,Stabu 100,2,74.0,1/7,Jaun.,155000.0,56.9599606,24.1209763,980.0,2094.5945945945946,Centrs
530,531,Ķengarags,Maskavas 409,4,76.0,3/5,Specpr.,70000.0,56.900881600000005,24.202540571699,304.0,921.0526315789474,Ķengarags
531,532,Ķengarags,Maltas 17,1,28.0,5/5,LT proj.,27200.0,56.9107921,24.18530885722308,426.0,971.4285714285714,Ķengarags
532,533,centrs,Matīsa 63,2,46.0,5/7,Renov.,102600.0,56.95417925,24.13994026860536,921.0,2230.4347826086955,Avoti
533,534,Pļavnieki,Rudens 8,1,32.0,9/9,602.,36500.0,56.937662,24.19829488500103,744.0,1140.625,Pļavnieki
534,535,centrs,Matīsa 63,2,34.0,4/7,Renov.,76095.0,56.95417925,24.13994026860536,921.0,2238.0882352941176,Avoti
535,536,centrs,Matīsa 63,2,46.0,4/7,Renov.,103455.0,56.95417925,24.13994026860536,921.0,2249.021739130435,Avoti
536,537,centrs,Eksporta 2,2,60.0,2/5,Staļina,175000.0,56.9560744,24.09884523604905,976.0,2916.6666666666665,Centrs
537,538,Vecmīlgrāvis,Kāvu 4,1,27.0,4/5,LT proj.,38000.0,57.0331188,24.1004593277762,1921.0,1407.4074074074074,Vecmilgrāvis
538,539,Torņakalns,Akmeņu 18,2,48.0,2/3,Specpr.,91000.0,56.93946145,24.09667379719525,723.0,1895.8333333333333,Torņakalns
539,540,Zolitūde,Anniņmuižas 4,2,57.0,2/16,104.,78000.0,56.94684925,24.00983524281463,832.0,1368.421052631579,Zolitūde
540,541,Purvciems,Ieriķu 33,3,57.0,1/5,LT proj.,51000.0,56.96659235,24.17867620470278,1118.0,894.7368421052631,Teika
541,542,Mangaļsala,Bākas 19,1,40.0,1/5,LT proj.,36000.0,57.05285615,24.069736662362104,2167.0,900.0,Mangaļsala
542,543,Teika,Ieriķu 28a,3,101.0,5/5,Jaun.,231000.0,56.9650725,24.171767130052803,1053.0,2287.128712871287,Purvciems
543,544,Ziepniekkalns,Bauskas 97,4,67.0,2/4,Jaun.,153900.0,56.9132438,24.1176792,413.0,2297.0149253731342,Ziepniekkalns
544,545,centrs,Vīlandes 15,2,54.0,4/5,Specpr.,96000.0,56.9617996,24.101865,1039.0,1777.7777777777778,Centrs
545,546,Ziepniekkalns,Bauskas 97,2,48.0,2/4,Jaun.,104900.0,56.9132438,24.1176792,413.0,2185.4166666666665,Ziepniekkalns
546,547,Ziepniekkalns,Bauskas 97,3,64.0,4/5,Jaun.,148900.0,56.9132438,24.1176792,413.0,2326.5625,Ziepniekkalns
547,548,Āgenskalns,Atpūtas 1,2,55.0,3/3,Staļina,76800.0,56.93680725,24.05821689676796,716.0,1396.3636363636365,Āgenskalns
548,549,centrs,Brīvības 112,5,123.0,5/5,P. kara,169000.0,56.96165695,24.13460929754464,1046.0,1373.9837398373984,Centrs
549,550,Ziepniekkalns,Ozolciema 18,2,60.0,1/9,119.,59500.0,56.89859735,24.08767077416605,218.0,991.6666666666666,Ziepniekkalns
550,551,Purvciems,Dzelzavas 67,3,59.0,4/9,467.,70000.0,56.95629695,24.196862459269703,995.0,1186.4406779661017,Purvciems
551,552,Purvciems,Brantkalna 10,3,75.0,3/6,119.,75000.0,56.9496002,24.192854734276537,869.0,1000.0,Purvciems
552,553,centrs,Lāčplēša 53,2,36.0,1/5,Renov.,99981.0,56.9523213,24.130212963747603,919.0,2777.25,Avoti
553,554,Pļavnieki,Ulbrokas 12/3,3,95.0,7/10,Jaun.,204000.0,56.9405859,24.2157801,810.0,2147.368421052632,Pļavnieki
554,555,centrs,Čaka 142,5,136.0,4/6,Jaun.,298000.0,56.9513692,24.127201,918.0,2191.176470588235,Centrs
555,556,Čiekurkalns,Čiekurkalna 2. l. 49a,3,81.0,2/4,Jaun.,139500.0,56.9834267,24.1658176,1304.0,1722.2222222222222,Čiekurkalns
556,557,Zolitūde,Lejiņa 20,1,46.0,1/9,119.,55000.0,56.946790500000006,24.02163402536427,834.0,1195.6521739130435,Zolitūde
557,558,Āgenskalns,Slokas 18 C,5,158.0,1/2,P. kara,95000.0,56.9472348,24.07416718043554,845.0,601.2658227848101,Āgenskalns
558,559,Teika,Bajāru 59,4,168.0,2/3,Specpr.,335000.0,56.971369,24.192236902641945,1183.0,1994.047619047619,Teika
559,560,Ķengarags,Bultu 7,1,35.0,5/11,M. ģim.,32900.0,56.9104694,24.19618874998843,365.0,940.0,Ķengarags
560,561,Pļavnieki,Salnas 7,3,63.0,5/9,602.,55000.0,56.942642500000005,24.22222013926563,811.0,873.015873015873,Pļavnieki
561,562,Jugla,Mārkalnes 5,1,17.0,1/5,M. ģim.,18500.0,56.992411700000005,24.22864482657527,1443.0,1088.235294117647,Jugla
562,563,Mežciems,Biķernieku 216,2,53.0,4/5,103.,38000.0,56.9599931,24.2286894,1002.0,716.9811320754717,Dreiliņi
563,564,Daugavgrīva,Plēksnes 3,2,47.0,5/5,103.,45000.0,57.03997605,24.03086662811362,1970.0,957.4468085106384,Daugavgrīva
564,565,Iļģuciems,Dzirciema 61,3,58.0,6/9,467.,63000.0,56.96331115,24.05423811540512,1030.0,1086.2068965517242,Iļģuciems
565,566,Šampēteris-Pleskodāle,Volguntes 40,3,98.0,3/4,Jaun.,250000.0,56.9375738,24.037465450000006,712.0,2551.020408163265,Pleskodāle
566,567,Mežciems,Līduma 8a,2,78.0,1/5,Jaun.,125000.0,56.9731286,24.23227916778371,1191.0,1602.5641025641023,Mežciems
567,568,Ķengarags,Maskavas 317,1,35.0,8/12,Čehu pr.,36000.0,56.9086945,24.1843373,363.0,1028.571428571429,Ķengarags
568,569,Ķengarags,Prūšu 4,4,100.0,4/5,Jaun.,137000.0,56.9146815,24.18146133464188,425.0,1370.0,Ķengarags
569,570,Purvciems,Stirnu 48,1,43.0,1/5,M. ģim.,36000.0,56.9641619,24.1953046,1058.0,837.2093023255813,Purvciems
570,571,Mežaparks,Inčukalna 2,4,95.0,3/5,Renov.,215000.0,56.9960407,24.14246281831603,1489.0,2263.157894736842,Mežaparks
571,572,centrs,Stabu 29,3,84.0,3/5,P. kara,195000.0,56.9563842,24.12869599714608,982.0,2321.428571428572,Centrs
572,573,Pļavnieki,Salnas 13,4,77.0,3/9,602.,80000.0,56.94271705,24.22601067522769,812.0,1038.9610389610389,Pļavnieki
573,574,Imanta,Bolderājas 12,1,25.0,2/2,P. kara,15000.0,56.96516385,24.04418755,1028.0,600.0,Imanta
574,575,centrs,Šarlotes 5,3,82.0,5/5,P. kara,180000.0,56.9639655,24.12821884648572,1045.0,2195.121951219512,Centrs
575,576,Mežaparks,Inčukalna 2,3,64.0,3/5,Renov.,156000.0,56.9960407,24.14246281831603,1489.0,2437.5,Mežaparks
576,577,centrs,Pumpura 5,3,150.0,1/6,P. kara,190000.0,56.9563679,24.1103724,978.0,1266.6666666666667,Centrs
577,578,Sarkandaugava,Sarkandaugavas 26k6,2,40.0,4/5,Hrušč.,45000.0,57.001205600000006,24.12526725915088,1548.0,1125.0,Sarkandaugava
578,579,Purvciems,Ieriķu 50,3,74.0,1/3,Staļina,119000.0,56.96568885000001,24.1810424,1118.0,1608.108108108108,Purvciems
579,580,Vecmīlgrāvis,Rīnūžu 11,3,69.0,3/5,Specpr.,75000.0,57.037869400000005,24.08963388799669,1982.0,1086.9565217391305,Vecmilgrāvis
580,581,Āgenskalns,Baldones 10,2,56.0,1/2,P. kara,34900.0,56.94868905,24.06351474408036,843.0,623.2142857142857,Āgenskalns
581,582,Purvciems,Vaidavas 9,2,38.0,3/5,LT proj.,55000.0,56.9618126,24.177521935658103,1055.0,1447.3684210526317,Purvciems
582,583,Vecmīlgrāvis,Vecmīlgrāvja 9/2,1,30.0,4/4,Hrušč.,27900.0,57.0293584,24.1080912,1860.0,930.0,Vecmilgrāvis
583,584,Vecmīlgrāvis,Meldru 14,3,55.0,5/5,LT proj.,37000.0,57.0309342,24.098328214273664,1921.0,672.7272727272727,Vecmilgrāvis
584,585,Mežaparks,Ķempes 2,2,40.0,4/12,Jaun.,119000.0,56.99350885,24.1648516002803,1430.0,2975.0,Mežaparks
585,586,Mežaparks,Ķempes 2,4,77.0,5/12,Jaun.,217900.0,56.99350885,24.1648516002803,1430.0,2829.87012987013,Mežaparks
586,587,Vecmīlgrāvis,Emmas 10,3,65.0,1/3,Staļina,47900.0,57.0289807,24.1100786,1860.0,736.9230769230769,Vecmilgrāvis
587,588,Mežciems,Eizenšteina 45,3,63.0,6/9,602.,57000.0,56.9658403,24.23534503926509,1129.0,904.7619047619048,Mežciems
588,589,Jugla,Brīvības 399,2,42.0,5/5,Hrušč.,33500.0,56.9884006,24.22876300952981,1380.0,797.6190476190476,Jugla
589,590,Zasulauks,Rododendru 5,2,49.0,5/5,Specpr.,64000.0,56.9476119,24.05027389578908,840.0,1306.1224489795918,Zasulauks
590,591,Mežaparks,Ķempes 4,2,66.0,8/12,Jaun.,145000.0,56.9943642,24.166126688574955,1430.0,2196.969696969697,Mežaparks
591,592,Purvciems,Nīcgales 31,2,58.0,1/9,119.,69500.0,56.95257545,24.17545386562859,928.0,1198.2758620689656,Purvciems
592,593,centrs,Mednieku 7,3,83.0,2/4,Renov.,300000.0,56.96047705,24.107971611374047,978.0,3614.457831325301,Centrs
593,594,Jugla,Auduma 35,3,58.0,3/5,Hrušč.,48000.0,56.9921929,24.23836617491188,1445.0,827.5862068965517,Jugla
594,595,Imanta,Anniņmuižas 11,4,127.0,1/2,Jaun.,325000.0,56.9565765,24.02318336703034,961.0,2559.0551181102364,Imanta
595,596,Berģi,Kaktusu 6,3,77.0,1/2,Renov.,168900.0,56.99581795,24.270274860747463,,2193.5064935064934,Berģi
596,597,Ziepniekkalns,Valdeķu 50/2,2,51.0,4/9,602.,59000.0,56.8985515,24.0920612,218.0,1156.862745098039,Ziepniekkalns
597,598,Ziepniekkalns,Vaiņodes 24А,2,47.0,3/5,LT proj.,36500.0,56.91468355,24.091679880175576,407.0,776.5957446808511,Ziepniekkalns
598,599,Bolderāja,Tekstilnieku 16,1,29.0,1/2,P. kara,5000.0,57.0307978,24.0421227,1909.0,172.41379310344828,Bolderāja
599,600,Imanta,Jūrmalas g. 93/1,2,49.0,5/5,LT proj.,62000.0,56.9521893,24.0276937,899.0,1265.3061224489795,Imanta
600,601,Čiekurkalns,Rusova 7,2,36.0,6/6,Jaun.,92160.0,56.98931435,24.16967683158608,1368.0,2560.0,Čiekurkalns
601,602,Pļavnieki,Rudens 6,3,63.0,6/9,602.,63000.0,56.9373471,24.19741087309322,744.0,1000.0,Pļavnieki
602,603,Ziepniekkalns,Ziepju 9,2,46.0,5/5,103.,55000.0,56.91472705,24.10920922763967,411.0,1195.6521739130435,Ziepniekkalns
603,604,Jugla,Silciema 15 K2,3,58.0,5/5,Hrušč.,46000.0,56.9852872,24.24068295518472,1319.0,793.1034482758621,Jugla
604,605,Mežciems,Eizenšteina 35,4,77.0,4/9,602.,68000.0,56.9678443,24.234022900000006,1129.0,883.1168831168832,Mežciems
605,606,Jugla,Vangažu 11,1,37.0,2/12,Specpr.,33500.0,56.9871472,24.22863905462379,1380.0,905.4054054054054,Jugla
606,607,Ķīpsala,Balasta d. 72,3,122.0,1/4,Specpr.,395000.0,56.9476673,24.0873316,848.0,3237.7049180327867,Ķīpsala
607,608,centrs,Tallinas 30,3,103.0,2/5,P. kara,197800.0,56.9621313,24.1383736,1047.0,1920.388349514563,Centrs
608,609,Ķengarags,Maskavas 315,1,35.0,10/12,Čehu pr.,32600.0,56.9091346,24.18367779623388,363.0,931.4285714285714,Ķengarags
609,610,centrs,Čaka 49,3,96.0,2/6,P. kara,121200.0,56.953884,24.131553,919.0,1262.5,Centrs
610,611,Purvciems,Stirnu 49c,3,60.0,4/5,LT proj.,52500.0,56.96356555,24.19111263855323,1057.0,875.0,Purvciems
611,612,Vecmīlgrāvis,Meldru 20,3,69.0,5/5,LT proj.,42400.0,57.0320398,24.097046081516662,1920.0,614.4927536231884,Vecmilgrāvis
612,613,Imanta,Akāciju 2E,3,55.0,1/9,Jaun.,120000.0,56.9518718,24.00498590460348,894.0,2181.818181818182,Imanta
613,614,Bolderāja,Gobas 20,2,53.0,7/9,Specpr.,47000.0,57.02970625,24.052924730523323,1849.0,886.7924528301887,Bolderāja
614,615,Grīziņkalns,Sapieru 3b,1,31.0,6/4,Renov.,57900.0,56.9628991,24.15240320126912,1050.0,1867.741935483871,Grīziņkalns
615,616,Purvciems,Varavīksnes g. 10,3,63.0,9/9,602.,79500.0,56.9521953,24.2048373,934.0,1261.904761904762,Purvciems
616,617,centrs,Blaumaņa 9,2,51.0,1/6,Renov.,97800.0,56.9539256,24.1237609,918.0,1917.6470588235293,Centrs
617,618,centrs,Blaumaņa 9,3,68.0,1/6,Renov.,128000.0,56.9539256,24.1237609,918.0,1882.3529411764705,Centrs
618,619,Ķengarags,Glūdas 8,3,61.0,5/5,LT proj.,56000.0,56.912411500000005,24.174237413044736,424.0,918.032786885246,Ķengarags
619,620,centrs,Ģertrūdes 65/3,3,52.0,1/6,Jaun.,104500.0,56.9582121,24.1213972,980.0,2009.6153846153843,Centrs
620,621,centrs,Ģertrūdes 65,3,66.0,2/6,Jaun.,147000.0,56.95197795,24.13272437408949,920.0,2227.2727272727275,Avoti
621,622,Vecmīlgrāvis,Emmas 28,2,33.0,3/4,Specpr.,42000.0,57.03179875,24.116664434629,1924.0,1272.7272727272727,Vecmilgrāvis
622,623,Āgenskalns,Raņķa d. 31,2,42.0,1/4,Renov.,67570.0,56.9450949,24.0837011,784.0,1608.809523809524,Āgenskalns
623,624,Āgenskalns,Raņķa d. 31,3,82.0,3/4,Renov.,127751.0,56.9450949,24.0837011,784.0,1557.939024390244,Āgenskalns
624,625,Torņakalns,Mūkusalas 56,2,38.0,2/3,Renov.,89999.0,56.929729050000006,24.10660654195345,599.0,2368.394736842105,Torņakalns
625,626,Purvciems,Dzelzavas 23,1,36.0,1/9,602.,28500.0,56.9600366,24.1767341,991.0,791.6666666666666,Purvciems
626,627,Teika,Brīvības 236,3,62.0,4/5,Staļina,93000.0,56.9738101,24.170066589282133,1179.0,1500.0,Teika
627,628,Ķengarags,Ikšķiles 3,2,47.0,2/5,Specpr.,49000.0,56.9024773,24.2046967208152,304.0,1042.5531914893618,Ķengarags
628,629,Imanta,Anniņmuižas 52,4,74.0,4/9,602.,72000.0,56.9588832,24.0094158,958.0,972.972972972973,Imanta
629,630,Mežciems,Biķernieku 220,2,46.0,5/5,103.,43000.0,56.9599931,24.2286894,1002.0,934.782608695652,Dreiliņi
630,631,centrs,Gogoļa 10,3,109.0,5/5,P. kara,170000.0,56.9464023,24.118269,854.0,1559.633027522936,Centrs
631,632,Iļģuciems,Grīvas 7,1,31.0,5/5,Hrušč.,25800.0,56.96556725000001,24.050677722237914,1092.0,832.258064516129,Iļģuciems
632,633,centrs,Republikas laukums 3,4,162.0,3/6,Jaun.,370000.0,56.9555576,24.0996114,976.0,2283.9506172839506,Centrs
633,634,Vecmīlgrāvis,Meldru 22,1,29.0,5/5,LT proj.,27000.0,57.03231205,24.096398449999995,1920.0,931.0344827586208,Vecmilgrāvis
634,635,Mežciems,Hipokrāta 24,2,35.0,1/5,Jaun.,86900.0,56.96045145,24.24015598929696,1004.0,2482.8571428571427,Mežciems
635,636,Berģi,Jumiķu 6,2,41.0,1/3,Hrušč.,36000.0,56.99820205,24.278326427973568,,878.0487804878048,Berģi
636,637,Iļģuciems,Reņģes 2b,2,57.0,5/5,LT proj.,42000.0,56.96604805,24.062057815336285,1094.0,736.8421052631579,Iļģuciems
637,638,Purvciems,Vaidavas 6 k-3,5,145.0,1/6,Jaun.,280000.0,56.96393545,24.172963875637706,1054.0,1931.0344827586207,Purvciems
638,639,Ziepniekkalns,Dignājas 3A,2,48.0,2/6,Jaun.,99000.0,56.91281480000001,24.12029034592851,413.0,2062.5,Ziepniekkalns
639,640,Iļģuciems,Saulgožu 17,2,43.0,2/5,Hrušč.,44500.0,56.96598675,24.04803698246016,1092.0,1034.8837209302326,Iļģuciems
640,641,Vecdaugava,Airu 42,2,58.0,2/2,Specpr.,48900.0,57.05275485,24.102571780462004,2174.0,843.1034482758621,Vecdaugava
641,642,Āgenskalns,Ļermontova 4,4,83.0,1/3,Renov.,209500.0,56.94079885,24.071574446716056,781.0,2524.0963855421687,Āgenskalns
642,643,Zolitūde,Endzelīna 5,2,60.0,5/9,119.,67900.0,56.94624395,24.024640415597887,835.0,1131.6666666666667,Zolitūde
643,644,Āgenskalns,Kalnciema 9A,5,398.0,9/10,Jaun.,500000.0,56.94607165,24.077743603989468,846.0,1256.2814070351758,Āgenskalns
644,645,centrs,Brīvības 132,Citi,250.0,1/4,Specpr.,137500.0,56.9631314,24.1377744,1047.0,550.0,Grīziņkalns
645,646,Ķengarags,Lokomotīves 52,2,52.0,8/12,Čehu pr.,67000.0,56.9081303,24.20186153910369,366.0,1288.4615384615386,Ķengarags
646,647,Purvciems,Astras 8,1,40.0,2/24,Jaun.,89000.0,56.952452,24.188248,931.0,2225.0,Purvciems
647,648,Āgenskalns,Valguma 20,3,66.0,3/4,Staļina,130000.0,56.942365,24.0921715,785.0,1969.6969696969695,Āgenskalns
648,649,centrs,Barona 6,2,49.0,3/6,Renov.,176400.0,56.9499451,24.119208171864305,854.0,3600.0,Centrs
649,650,centrs,Stabu 57B,2,61.0,2/5,P. kara,87000.0,56.9538663,24.1349781,920.0,1426.229508196721,Avoti
650,651,centrs,Antonijas 26,3,58.0,2/6,Renov.,210000.0,56.96039375,24.11519144796677,979.0,3620.689655172414,Centrs
651,652,centrs,Elizabetes 21a,2,50.0,3/5,Renov.,195000.0,56.9586159,24.106666551239307,977.0,3900.0,Centrs
652,653,Vecmīlgrāvis,Kalngales 9,2,35.0,2/9,602.,29500.0,57.03936795,24.10128568391652,1984.0,842.8571428571429,Vecmilgrāvis
653,654,Vecmīlgrāvis,Ziemeļblāzmas 51,2,50.0,6/9,602.,35000.0,57.037555,24.096724259386583,1983.0,700.0,Vecmilgrāvis
654,655,Imanta,Anniņmuižas 43,4,139.0,19/24,Jaun.,248000.0,56.9589929,24.01397786996067,959.0,1784.1726618705036,Imanta
655,656,Teika,Struktoru 5,3,60.0,3/3,P. kara,84140.0,56.97341895,24.17352089939652,1180.0,1402.3333333333333,Teika
656,657,Teika,Struktoru 5,2,47.0,3/3,P. kara,76320.0,56.97341895,24.17352089939652,1180.0,1623.8297872340424,Teika
657,658,Zolitūde,Lejiņa 14,2,58.0,3/9,119.,50000.0,56.9477099,24.02033026872468,834.0,862.0689655172414,Zolitūde
658,659,centrs,Eksporta 14,2,55.0,4/5,Staļina,109000.0,56.9593516,24.0983542,976.0,1981.8181818181815,Centrs
659,660,Mežciems,Mežciema 220,2,54.0,4/5,103.,36000.0,56.9715178,24.2309022,1191.0,666.6666666666666,Mežciems
660,661,Teika,Ropažu 75,2,42.0,1/2,Jaun.,102000.0,56.98233475,24.18844035,1309.0,2428.5714285714284,Teika
661,662,Teika,Ropažu 75,2,43.0,2/2,Renov.,102200.0,56.98233475,24.18844035,1309.0,2376.7441860465115,Teika
662,663,Teika,Ropažu 75,2,41.0,2/2,Renov.,96700.0,56.98233475,24.18844035,1309.0,2358.5365853658536,Teika
663,664,centrs,Lāčplēša 1,3,79.0,3/5,Specpr.,75900.0,56.958442,24.1178429,980.0,960.759493670886,Centrs
664,665,Purvciems,Madonas 23,3,85.0,17/18,Specpr.,95000.0,56.9611283,24.171955631006007,1053.0,1117.6470588235295,Purvciems
665,666,Sarkandaugava,Sarkandaugavas 26 k-9,1,38.0,4/5,Hrušč.,27000.0,57.0021488,24.1248028,1548.0,710.5263157894736,Sarkandaugava
666,667,Imanta,Anniņmuižas 43,3,170.0,22/23,Jaun.,235000.0,56.9589929,24.01397786996067,959.0,1382.3529411764705,Imanta
667,668,centrs,Marijas 16,5,185.0,1/7,P. kara,323000.0,56.9505796,24.1255938,918.0,1745.945945945946,Avoti
668,669,centrs,Blaumaņa 26,4,84.0,3/6,P. kara,159000.0,56.95306445,24.123742773766427,918.0,1892.857142857143,Centrs
669,670,centrs,Alunāna 9,4,118.0,1/4,Renov.,239000.0,56.95710029999999,24.111465037335627,978.0,2025.4237288135596,Centrs
670,671,Āgenskalns,Kuģu 28,4,147.0,7/4,Jaun.,558000.0,56.94643535,24.091265266516764,848.0,3795.918367346939,Āgenskalns
671,672,Imanta,Jūrmalas g. 46,4,60.0,1/2,P. kara,82000.0,56.9529998,24.0165749,896.0,1366.6666666666667,Imanta
672,673,Ziepniekkalns,Bauskas 201,1,36.0,2/9,602.,41900.0,56.9137741,24.1192507,413.0,1163.888888888889,Ziepniekkalns
673,674,Zolitūde,Vecaines 1,2,41.0,1/2,Priv. m.,51000.0,56.93766075,24.01687165514751,707.0,1243.9024390243903,Zolitūde
674,675,Pļavnieki,Ilūkstes 4,1,46.0,5/9,M. ģim.,40000.0,56.93391825,24.196113058652745,680.0,869.5652173913044,Pļavnieki
675,676,Āgenskalns,Kuģu 28,4,133.0,3/7,Jaun.,485000.0,56.94643535,24.091265266516764,848.0,3646.616541353384,Āgenskalns
676,677,Purvciems,Stirnu 37,2,49.0,6/9,602.,47000.0,56.961607,24.187133502182625,1056.0,959.1836734693876,Purvciems
677,678,Ķengarags,Prūšu 42,2,41.0,4/4,Specpr.,31000.0,56.90991145,24.194353321605504,365.0,756.0975609756098,Ķengarags
678,679,centrs,Baznīcas 26A,1,75.0,2/6,Renov.,135000.0,56.9585108,24.122897820107795,981.0,1800.0,Centrs
679,680,Purvciems,Nīcgales 4,3,61.0,4/9,602.,77500.0,56.95855125,24.175387470071428,991.0,1270.4918032786886,Purvciems
680,681,Daugavgrīva,Birzes 40,2,47.0,5/5,103.,35800.0,57.0372628,24.02827980616405,1970.0,761.7021276595744,Daugavgrīva
681,682,Iļģuciems,Buļļu 31A,2,50.0,5/5,LT proj.,56000.0,56.9675863,24.053760017960087,1093.0,1120.0,Iļģuciems
682,683,Vecmīlgrāvis,Vijolīšu 6,1,43.0,1/1,M. ģim.,26500.0,57.0350429,24.0944356,1920.0,616.2790697674419,Vecmilgrāvis
683,684,Teika,Ūnijas 32,1,14.0,1/2,Specpr.,16000.0,56.9668389,24.173283499803148,1117.0,1142.857142857143,Teika
684,685,Ziepniekkalns,Bauskas 49,3,61.0,5/5,LT proj.,45600.0,56.9181754,24.10196501899433,472.0,747.5409836065573,Ziepniekkalns
685,686,centrs,Stabu 49a,3,67.0,1/6,Renov.,86966.0,56.954615,24.1323044,920.0,1298.0,Centrs
686,687,Imanta,Kurzemes pr. 40,3,68.0,3/5,LT proj.,61200.0,56.9523843,24.0351851,900.0,900.0,Imanta
687,688,Teika,Ūnijas 32,1,15.0,1/2,Specpr.,15950.0,56.9668389,24.173283499803148,1117.0,1063.3333333333333,Teika
688,689,centrs,Dzirnavu 72,3,89.0,4/5,Renov.,255000.0,56.9524078,24.1221386,917.0,2865.168539325842,Centrs
689,690,centrs,Dzirnavu 92,3,80.0,5/5,Renov.,149000.0,56.9504141,24.123458,855.0,1862.5,Centrs
690,691,Imanta,Kleistu 21,2,51.0,4/9,602.,44500.0,56.96457975,24.02416819605095,1024.0,872.5490196078431,Imanta
691,692,Vecrīga,Peldu 24,2,51.0,4/4,Renov.,117000.0,56.9460538,24.1079949,852.0,2294.1176470588234,Vecpilsēta
692,693,centrs,Lāčplēša 43/45,3,54.0,3/5,P. kara,82000.0,56.9528912,24.12876676327121,919.0,1518.5185185185185,Centrs
693,694,Mežaparks,Gatartas 6,5,120.0,2/2,Renov.,310000.0,57.00340885,24.1565994,1554.0,2583.333333333333,Mežaparks
694,695,Sarkandaugava,Tvaika 33,2,50.0,5/5,Specpr.,46000.0,57.0153399,24.1236022216443,1674.0,920.0,Sarkandaugava
695,696,Purvciems,Nīcgales 64,1,22.0,4/9,Specpr.,24000.0,56.9534578,24.1747956,928.0,1090.909090909091,Purvciems
696,697,Zolitūde,Ruses 7,2,58.0,8/9,119.,61800.0,56.94783945,24.00435441463155,831.0,1065.5172413793102,Zolitūde
697,698,Zolitūde,Zolitūdes 46 k-3,4,99.0,4/9,119.,96500.0,56.942983850000005,24.00463645603004,768.0,974.7474747474748,Zolitūde
698,699,Purvciems,Dzelzavas 15/1,1,29.0,3/5,Hrušč.,32000.0,56.9622361,24.1716621,1053.0,1103.448275862069,Purvciems
699,700,Purvciems,Deglava 35,3,64.0,1/3,P. kara,64000.0,56.9518739,24.16862169556274,927.0,1000.0,Purvciems
700,701,centrs,Lāčplēša 53,1,26.0,1/5,Renov.,69000.0,56.9523213,24.130212963747603,919.0,2653.846153846154,Avoti
701,702,Zolitūde,Bieziņa 6,2,57.0,3/9,119.,57000.0,56.9449831,24.022376798959264,772.0,1000.0,Zolitūde
702,703,Imanta,Rigondas g. 8,3,63.0,5/9,602.,65000.0,56.9648381,24.0191151,1023.0,1031.7460317460318,Imanta
703,704,Iļģuciems,Grīvas 23,3,54.0,4/5,Hrušč.,59900.0,56.9639355,24.0479568,1029.0,1109.2592592592594,Iļģuciems
704,705,Purvciems,Ūnijas 1,1,28.0,1/2,P. kara,29800.0,56.965116,24.1777133135933,1055.0,1064.2857142857142,Purvciems
705,706,Purvciems,Pūces 51,2,50.0,2/9,602.,52000.0,56.953502150000006,24.192131770328075,931.0,1040.0,Purvciems
706,707,Ziepniekkalns,Valdeķu 61,2,54.0,1/10,119.,51500.0,56.90006635,24.091788445610497,218.0,953.7037037037036,Ziepniekkalns
707,708,Vecmīlgrāvis,Melīdas 4,3,57.0,1/5,LT proj.,57000.0,57.0296081,24.106499050000007,1859.0,1000.0,Vecmilgrāvis
708,709,Iļģuciems,Saulgožu 13,2,41.0,4/5,Hrušč.,41500.0,56.96529995,24.0479072874402,1029.0,1012.1951219512196,Iļģuciems
709,710,Ķengarags,Salaspils 12 k-3,2,47.0,3/5,LT proj.,46500.0,56.9196883,24.181515663839463,488.0,989.3617021276596,Ķengarags
710,711,Imanta,Imantas 4a,3,60.0,1/5,LT proj.,43000.0,56.95401905,24.028247451370387,899.0,716.6666666666666,Imanta
711,712,Vecmīlgrāvis,Anitas 7,3,79.0,1/2,Staļina,85000.0,57.0288673,24.1116162,1860.0,1075.9493670886077,Vecmilgrāvis
712,713,Imanta,Jūrmalas g. 91,3,54.0,4/5,LT proj.,45000.0,56.9529998,24.0165749,896.0,833.3333333333334,Imanta
713,714,Ķengarags,Maskavas 260/k3,2,48.0,2/5,LT proj.,47500.0,56.9094227,24.180042390242424,362.0,989.5833333333334,Ķengarags
714,715,Ķengarags,Maskavas 268/3,3,59.0,5/5,LT proj.,42000.0,56.8997798,24.2039578,241.0,711.8644067796611,Rumbula
715,716,centrs,Miera 57A,4,171.0,2/5,Jaun.,350000.0,56.959904,24.1290166,982.0,2046.783625730994,Centrs
716,717,Ziepniekkalns,Ilmājas 15,2,54.0,2/5,103.,56000.0,56.9148155,24.09964776189792,409.0,1037.037037037037,Ziepniekkalns
717,718,Purvciems,Burtnieku 33,1,18.0,4/5,M. ģim.,10500.0,56.9664204,24.1816747,1118.0,583.3333333333334,Teika
718,719,Teika,Ropažu 122 k-5,2,46.0,1/2,Staļina,50000.0,56.9837612,24.19594403595762,1310.0,1086.9565217391305,Teika
719,720,Imanta,Dubultu 16,3,59.0,5/5,LT proj.,42990.0,56.957361,24.0061017257371,957.0,728.6440677966102,Imanta
720,721,Purvciems,Stirnu 4,3,63.0,4/12,Jaun.,138000.0,56.9513344,24.184393,930.0,2190.4761904761904,Purvciems
721,722,Pļavnieki,Ilūkstes 26,1,40.0,2/5,M. ģim.,40500.0,56.94293985,24.196339498606807,806.0,1012.5,Pļavnieki
722,723,centrs,Stabu 49,2,34.0,5/5,P. kara,70000.0,56.9548643,24.131885879642866,919.0,2058.823529411765,Centrs
723,724,Ķengarags,Aglonas 27,3,54.0,5/5,Hrušč.,52000.0,56.91323145,24.18359077738548,426.0,962.9629629629628,Ķengarags
724,725,Ziepniekkalns,Ozolciema 40 k-3,2,51.0,2/9,602.,54300.0,56.901932,24.096949143391992,282.0,1064.7058823529412,Ziepniekkalns
725,726,Grīziņkalns,Pērnavas 39,1,28.0,2/6,P. kara,32500.0,56.9555587,24.154090563049827,987.0,1160.7142857142858,Grīziņkalns
726,727,Šampēteris-Pleskodāle,Irlavas 16,3,60.0,2/2,Renov.,118000.0,56.9403406,24.0350842,711.0,1966.6666666666667,Pleskodāle
727,728,Vecmīlgrāvis,Meldru 6,2,44.0,4/5,Hrušč.,27500.0,57.02846205,24.10209127321924,1858.0,625.0,Vecmilgrāvis
728,729,Purvciems,Stirnu 21,3,63.0,5/5,LT proj.,62000.0,56.9572132,24.1812146,992.0,984.126984126984,Purvciems
729,730,Šampēteris-Pleskodāle,Zalves 52,1,33.0,5/5,103.,39999.0,56.9390439,24.034825620009467,711.0,1212.090909090909,Pleskodāle
730,731,Sarkandaugava,Limbažu 11,2,37.0,1/5,Hrušč.,32000.0,57.00058145,24.125507646763342,1548.0,864.8648648648649,Sarkandaugava
731,732,Purvciems,Stirnu 49c,3,60.0,3/5,LT proj.,74777.0,56.96356555,24.19111263855323,1057.0,1246.2833333333333,Purvciems
732,733,centrs,Brīvības 47,2,50.0,2/5,P. kara,125000.0,56.956564,24.1211605,980.0,2500.0,Centrs
733,734,Āgenskalns,Kuldīgas 45b,4,98.0,5/5,Jaun.,254000.0,56.9453149,24.055316548164555,778.0,2591.8367346938776,Zasulauks
734,735,Vecrīga,Mucenieku 3,2,48.0,2/5,P. kara,112792.0,56.9488434,24.1116995,852.0,2349.833333333333,Vecpilsēta
735,736,Vecrīga,Mucenieku 3,2,51.0,4/5,P. kara,125429.0,56.9488434,24.1116995,852.0,2459.392156862745,Vecpilsēta
736,737,Vecrīga,Mucenieku 3,1,35.0,5/5,P. kara,96000.0,56.9488434,24.1116995,852.0,2742.8571428571427,Vecpilsēta
737,738,Āgenskalns,Kuldīgas 45b,1,28.0,1/5,Renov.,73000.0,56.9453149,24.055316548164555,778.0,2607.1428571428573,Zasulauks
738,739,Teika,Brīvības 320,2,44.0,4/5,Hrušč.,79500.0,56.97930985,24.18843485,1246.0,1806.8181818181815,Teika
739,740,Imanta,Dubultu 19,2,50.0,3/5,LT proj.,43000.0,56.95623515,24.004318351430136,957.0,860.0,Imanta
740,741,Zolitūde,Anniņmuižas 2B,1,43.0,9/9,119.,52800.0,56.94773185,24.008227247383243,832.0,1227.906976744186,Zolitūde
741,742,centrs,Miera 76,2,54.0,3/5,P. kara,92000.0,56.959904,24.1290166,982.0,1703.7037037037037,Centrs
742,743,centrs,Matīsa 82a,1,18.0,2/2,P. kara,11800.0,56.9564621,24.134618,983.0,655.5555555555555,Centrs
743,744,Purvciems,Stirnu 14,1,42.0,3/5,M. ģim.,48500.0,56.95362445000001,24.183362450000004,930.0,1154.7619047619048,Purvciems
744,745,centrs,Ģertrūdes 99,2,56.0,1/5,P. kara,105000.0,56.9582121,24.1213972,980.0,1875.0,Centrs
745,746,Ziepniekkalns,Kalētu 4,1,39.0,4/4,Renov.,39000.0,56.90484405,24.125029500000004,288.0,1000.0,Ziepniekkalns
746,747,Bukulti,Jaunciema g. 71,3,70.0,4/4,Specpr.,56000.0,57.0092962,24.2434328,1635.0,800.0,Bukulti
747,748,Ziepniekkalns,Graudu 29a,3,110.0,2/4,Jaun.,175000.0,56.90912085,24.09740697440976,346.0,1590.909090909091,Ziepniekkalns
748,749,Daugavgrīva,Esplanādes 8,2,41.0,1/2,P. kara,29500.0,57.04084435,24.03456015755715,2034.0,719.5121951219512,Daugavgrīva
749,750,Pļavnieki,Salnas 21,3,64.0,1/9,Jaun.,112900.0,56.942327,24.23009287799782,813.0,1764.0625,Pļavnieki
750,751,Pļavnieki,Salnas 21,1,37.0,3/9,Jaun.,69900.0,56.942327,24.23009287799782,813.0,1889.1891891891887,Pļavnieki
751,752,Purvciems,Stirnu 49,3,59.0,4/5,LT proj.,48500.0,56.962313550000005,24.19024538532968,1057.0,822.0338983050848,Purvciems
752,753,Vecrīga,Peitavas 5,3,105.0,3/5,P. kara,208000.0,56.9462191,24.1099153,852.0,1980.952380952381,Vecpilsēta
753,754,Purvciems,Stirnu 49,1,29.0,1/5,LT proj.,28500.0,56.962313550000005,24.19024538532968,1057.0,982.7586206896552,Purvciems
754,755,Čiekurkalns,Rusova 28,1,42.0,5/5,M. ģim.,34000.0,56.9870626,24.172339525016103,1369.0,809.5238095238095,Čiekurkalns
755,756,Šķirotava,Krustpils 75/5,1,13.0,2/3,Specpr.,15000.0,56.9073384,24.2129414,369.0,1153.8461538461538,Šķirotava
756,757,Zolitūde,Jūrkalnes 87,4,136.0,2/5,Jaun.,195000.0,56.9363971,24.01752472591033,708.0,1433.8235294117646,Pleskodāle
757,758,Pļavnieki,Tīnūžu 14,3,62.0,9/9,602.,54900.0,56.93408535,24.20825948017022,683.0,885.483870967742,Pļavnieki
758,759,Jugla,Brīvības 458a,2,48.0,1/4,Priv. m.,44500.0,56.9907911,24.2466615,1446.0,927.0833333333334,Jugla
759,760,Vecmīlgrāvis,Atlantijas 12,3,68.0,1/5,103.,49400.0,57.0379676,24.088619854630128,1982.0,726.4705882352941,Vecmilgrāvis
760,761,Pļavnieki,Rembates 10,4,95.0,7/10,Jaun.,211743.0,56.9407052,24.2287518,813.0,2228.8736842105263,Pļavnieki
761,762,Šķirotava,Malēju 4a,1,18.0,2/4,Specpr.,15000.0,56.90687475,24.220915782229994,370.0,833.3333333333334,Šķirotava
762,763,Daugavgrīva,Esplanādes 5/1,3,47.0,1/2,Specpr.,40000.0,57.0417354,24.0341576,2034.0,851.063829787234,Daugavgrīva
763,764,Teika,Vidrižu 1c,2,47.0,5/7,Specpr.,67500.0,56.9778091,24.177578306037688,1244.0,1436.1702127659576,Teika
764,765,Šķirotava,Gravas 17,3,91.0,2/5,Jaun.,145000.0,56.9051509,24.22958879775552,309.0,1593.4065934065934,Šķirotava
765,766,Purvciems,Staiceles 21,3,58.0,1/5,LT proj.,63700.0,56.95675385,24.17277445,991.0,1098.2758620689656,Purvciems
766,767,Berģi,Berģu 9,3,60.0,3/4,Specpr.,60000.0,56.997867150000005,24.277341526994302,,1000.0,Berģi
767,768,Imanta,Zentenes 18,3,62.0,8/9,602.,63500.0,56.96185115,24.00356987519433,1020.0,1024.1935483870968,Imanta
768,769,centrs,Brīvības 117,1,21.0,3/3,Staļina,38000.0,56.9631222,24.1359017,1046.0,1809.5238095238096,Centrs
769,770,Purvciems,Viršu 5,2,57.0,4/9,119.,70000.0,56.9519153,24.17701903491562,928.0,1228.0701754385964,Purvciems
770,771,Pļavnieki,Salnas 13,4,75.0,3/9,602.,80000.0,56.94271705,24.22601067522769,812.0,1066.6666666666667,Pļavnieki
771,772,Purvciems,Ilūkstes 103,2,53.0,4/5,467.,60000.0,56.95208355,24.19779189872241,933.0,1132.0754716981132,Purvciems
772,773,Imanta,Kleistu 15,2,49.0,6/9,602.,41800.0,56.9635327,24.023010376357096,1024.0,853.0612244897959,Imanta
773,774,Imanta,Imantas 4a,1,27.0,5/5,LT proj.,30000.0,56.95401905,24.028247451370387,899.0,1111.111111111111,Imanta
774,775,Purvciems,Marsa g. 6,3,55.0,5/5,LT proj.,47700.0,56.9525312,24.1998405,933.0,867.2727272727273,Purvciems
775,776,Imanta,Dammes 8,2,49.0,6/9,602.,49990.0,56.96236015,24.013446657655777,1022.0,1020.204081632653,Imanta
776,777,Purvciems,Nīcgales 9,2,45.0,1/5,LT proj.,52000.0,56.95723525,24.17797383444796,992.0,1155.5555555555557,Purvciems
777,778,Teika,Turaidas 8,2,48.0,3/5,Jaun.,125000.0,56.9683624,24.1582572846684,1114.0,2604.1666666666665,Teika
778,779,Zolitūde,Zolitūdes 46,3,75.0,2/9,119.,73500.0,56.94221345,24.005887844664425,768.0,980.0,Zolitūde
779,780,Teika,Ropažu 76,3,60.0,2/5,Hrušč.,79000.0,56.9821733,24.18587051447479,1308.0,1316.6666666666667,Teika
780,781,Zolitūde,Apuzes 53,2,42.0,1/2,Specpr.,34000.0,56.9431946,24.019673303716218,771.0,809.5238095238095,Zolitūde
781,782,Jugla,Lilastes 5,2,46.0,5/5,Hrušč.,45800.0,56.98077435,24.25034517506867,1321.0,995.6521739130436,Jugla
782,783,Ziepniekkalns,Līvciema 57,2,50.0,5/9,602.,57000.0,56.901309100000006,24.102314001078938,284.0,1140.0,Ziepniekkalns
783,784,Ķengarags,Višķu 19,1,31.0,5/5,LT proj.,32500.0,56.90032605,24.214265399999995,243.0,1048.3870967741937,Ķengarags
784,785,Bolderāja,Lielupes 1k-6,3,55.0,2/4,Hrušč.,39000.0,57.0382798,24.05124174799076,1974.0,709.0909090909091,Bolderāja
785,786,Jugla,Brīvības 367,2,42.0,2/5,Hrušč.,50000.0,56.9878569,24.21971367934781,1378.0,1190.4761904761904,Jugla
786,787,Ķengarags,Plostu 24,3,56.0,5/5,LT proj.,40500.0,56.9059672,24.197837240295662,366.0,723.2142857142857,Ķengarags
787,788,Ķīpsala,Ķīpsalas 49,2,71.0,1/3,Jaun.,260000.0,56.9547358,24.08247200853746,910.0,3661.9718309859154,Ķīpsala
788,789,Teika,Ķeguma 45,1,39.0,4/5,M. ģim.,39500.0,56.9663044,24.1943507,1121.0,1012.8205128205128,Teika
789,790,Teika,Ropažu 14/1,4,106.0,10/10,Jaun.,283000.0,56.9842147,24.2023161,1312.0,2669.811320754717,Teika
790,791,Ķengarags,Lokomotīves 86,2,44.0,3/5,LT proj.,34500.0,56.90146855,24.212250827169072,305.0,784.0909090909091,Ķengarags
791,792,Purvciems,Vējavas 10k2,2,51.0,8/8,602.,42000.0,56.9560694,24.168373485998607,990.0,823.5294117647059,Purvciems
792,793,Mežciems,Kaivas 50,3,80.0,2/5,Jaun.,138000.0,56.9571247,24.2475937,1006.0,1725.0,Mežciems
793,794,Mežaparks,Ķempes 11,3,72.0,7/12,Specpr.,98000.0,56.9955802,24.17058349148753,1494.0,1361.111111111111,Mežaparks
794,795,centrs,Skanstes 29,1,54.0,4/24,Jaun.,125000.0,56.9627217,24.1133633,1042.0,2314.814814814815,Skanste
795,796,centrs,Barona 22,4,106.0,4/5,P. kara,169000.0,56.9511707,24.12229797380079,918.0,1594.339622641509,Centrs
796,797,Jugla,Skrudalienas 6,4,101.0,2/2,Jaun.,195000.0,56.9808185,24.2508215,1321.0,1930.6930693069307,Jugla
797,798,Jugla,Vangažu 30,3,78.0,6/12,Čehu pr.,74000.0,56.98655535,24.22929648445137,1380.0,948.7179487179488,Jugla
798,799,Ķengarags,Ikšķiles 5,1,35.0,12/12,Specpr.,35000.0,56.902215,24.20614677444779,304.0,1000.0,Ķengarags
799,800,Iļģuciems,Lidoņu 13,3,61.0,4/5,LT proj.,72000.0,56.9714223,24.06515040206701,1158.0,1180.327868852459,Iļģuciems
800,801,Purvciems,Nīcgales 14,1,30.0,5/5,LT proj.,28000.0,56.9564433,24.175061850000027,991.0,933.3333333333334,Purvciems
801,802,centrs,Brīvības 158,2,127.0,1/6,P. kara,59000.0,56.9537963,24.117328,917.0,464.5669291338583,Centrs
802,803,Torņakalns,Robežu 3/8,2,41.0,2/3,Hrušč.,50000.0,56.9206052,24.0849701,532.0,1219.5121951219512,Torņakalns
803,804,Ziepniekkalns,Ziepju 9,2,53.0,4/5,103.,84000.0,56.91472705,24.10920922763967,411.0,1584.9056603773586,Ziepniekkalns
804,805,centrs,Briāna 14,2,27.0,1/5,P. kara,19500.0,56.96371705,24.130556180882035,1045.0,722.2222222222222,Centrs
805,806,centrs,Tallinas 61,3,66.0,2/4,P. kara,155000.0,56.959089500000005,24.144012849999992,985.0,2348.4848484848485,Grīziņkalns
806,807,Teika,Raunas 19/2,3,70.0,3/5,103.,112000.0,56.9699511,24.1714582,1116.0,1600.0,Teika
807,808,Torņakalns,Altonavas 22,2,45.0,2/2,P. kara,38900.0,56.9270748,24.0800213,594.0,864.4444444444445,Torņakalns
808,809,Purvciems,Ilūkstes 103/1,1,32.0,1/9,467.,35000.0,56.9493874,24.1970802,869.0,1093.75,Purvciems
809,810,Bieriņi,Tēriņu 1,1,20.0,2/2,P. kara,23500.0,56.92592695,24.081003950000003,594.0,1175.0,Bieriņi
810,811,Čiekurkalns,Gaujas 19,3,54.0,2/4,P. kara,81000.0,56.9832776,24.1546716920121,1302.0,1500.0,Čiekurkalns
811,812,Pļavnieki,Ulbrokas 12k3,1,56.0,9/9,Jaun.,96000.0,56.94108425,24.22037074366972,811.0,1714.2857142857142,Pļavnieki
812,813,Torņakalns,Vēja 16,2,36.0,2/2,P. kara,17850.0,56.92703265,24.09745610397851,598.0,495.8333333333333,Torņakalns
813,814,Iļģuciems,Daugavgrīvas 132/2,2,51.0,3/5,Staļina,60000.0,56.9659722,24.0715254,1096.0,1176.470588235294,Iļģuciems
814,815,Mežaparks,Ķempes 3,3,76.0,7/12,Specpr.,109700.0,56.99484345,24.165461369658,1430.0,1443.421052631579,Mežaparks
815,816,Purvciems,Braslas 23,1,39.0,5/5,M. ģim.,30000.0,56.9627558,24.16565605,1052.0,769.2307692307693,Purvciems
816,817,Bieriņi,Tēriņu 1,1,23.0,2/2,P. kara,23900.0,56.92592695,24.081003950000003,594.0,1039.1304347826087,Bieriņi
817,818,Daugavgrīva,Parādes 20a,2,42.0,5/5,Specpr.,24500.0,57.0397022,24.0260041,1969.0,583.3333333333334,Daugavgrīva
818,819,Sarkandaugava,Allažu 3,1,25.0,1/3,P. kara,14000.0,56.99796115,24.121094979639828,1484.0,560.0,Sarkandaugava
819,820,Āgenskalns,Nometņu 57,1,37.0,1/2,P. kara,20000.0,56.9375092,24.07153391544118,718.0,540.5405405405405,Āgenskalns
820,821,Vecmīlgrāvis,Meldru 24,1,30.0,1/5,LT proj.,29000.0,57.03262235,24.09540702973588,1920.0,966.6666666666666,Vecmilgrāvis
821,822,Purvciems,Dudajeva g. 2,3,66.0,3/5,LT proj.,51000.0,56.9575254,24.1942844,995.0,772.7272727272727,Purvciems
822,823,Ķengarags,Maskavas 409,2,54.0,3/5,Specpr.,38000.0,56.900881600000005,24.202540571699,304.0,703.7037037037037,Ķengarags
823,824,Ķengarags,Prūšu 17a,1,18.0,1/5,M. ģim.,24500.0,56.913415150000006,24.1908321409105,427.0,1361.111111111111,Ķengarags
824,825,Āgenskalns,Ormaņu 18a,1,26.0,1/2,P. kara,22000.0,56.93846755,24.066737511369343,717.0,846.1538461538462,Āgenskalns
825,826,Purvciems,Stirnu 35,3,62.0,8/9,602.,62800.0,56.9604641,24.186718577461097,993.0,1012.9032258064516,Purvciems
826,827,Pļavnieki,Kaudzīšu 8,1,35.0,5/9,602.,39500.0,56.93928275,24.19962629504787,744.0,1128.571428571429,Pļavnieki
827,828,centrs,Eksporta 12,2,56.0,3/6,Staļina,159800.0,56.9593516,24.0983542,976.0,2853.5714285714284,Centrs
828,829,Iļģuciems,Baltā 24,1,27.0,5/5,LT proj.,29000.0,56.97087605,24.064130162577392,1158.0,1074.074074074074,Iļģuciems
829,830,Teika,Dzērbenes 3A,3,66.0,4/5,Specpr.,87000.0,56.9802727,24.191826340433,1246.0,1318.1818181818182,Teika
830,831,Imanta,Dammes 33,2,50.0,1/5,LT proj.,49000.0,56.9647216,24.00658904641454,1020.0,980.0,Imanta
831,832,Purvciems,Zileņu 12,2,70.0,3/5,Jaun.,143000.0,56.95475895,24.17734795446756,929.0,2042.857142857143,Purvciems
832,833,Vecmīlgrāvis,Rinkas 7,4,77.0,3/9,602.,59000.0,57.03312625,24.102231172196724,1921.0,766.2337662337662,Vecmilgrāvis
833,834,Ziepniekkalns,Valdeķu 54,3,65.0,9/9,602.,69000.0,56.8985515,24.0920612,218.0,1061.5384615384614,Ziepniekkalns
834,835,Purvciems,Dudajeva g. 11,3,55.0,4/5,LT proj.,64000.0,56.9575254,24.1942844,995.0,1163.6363636363635,Purvciems
835,836,Sarkandaugava,Sīmaņa 6,1,23.0,2/3,P. kara,17500.0,56.9929495,24.1278353,1423.0,760.8695652173913,Sarkandaugava
836,837,Sarkandaugava,Hāpsalas 21,1,25.0,2/3,P. kara,20000.0,57.00301175,24.12089889339907,1547.0,800.0,Sarkandaugava
837,838,Zolitūde,Ruses 24,3,82.0,5/9,119.,80000.0,56.94616315,24.00884877684529,832.0,975.609756097561,Zolitūde
838,839,Ķengarags,Ikšķiles 17,1,35.0,11/12,Čehu pr.,38000.0,56.9039142,24.208536695837743,305.0,1085.7142857142858,Ķengarags
839,840,Imanta,Kurzemes pr. 100,2,50.0,2/9,602.,43500.0,56.9536873,23.9975017,893.0,870.0,Imanta
840,841,Ķengarags,Višķu 1,2,50.0,1/9,467.,53000.0,56.8980054,24.211220047588924,242.0,1060.0,Ķengarags
841,842,Vecmīlgrāvis,Rīnūžu 22,3,68.0,5/5,103.,69500.0,57.0379414,24.090329240118106,1982.0,1022.0588235294116,Vecmilgrāvis
842,843,Imanta,Zentenes 18,2,50.0,4/9,602.,56000.0,56.96185115,24.00356987519433,1020.0,1120.0,Imanta
843,844,Purvciems,Ilūkstes 107/3,1,32.0,6/9,467.,36000.0,56.9493874,24.1970802,869.0,1125.0,Purvciems
844,845,centrs,Tērbatas 82,2,47.0,2/5,P. kara,65000.0,56.960754,24.137220745806403,1046.0,1382.978723404255,Centrs
845,846,Teika,Burtnieku 36A,3,87.0,5/5,Jaun.,146500.0,56.9666568,24.1823053,1119.0,1683.9080459770114,Teika
846,847,Ziepniekkalns,Bērzupes 23,3,62.0,5/5,Renov.,97500.0,56.915186,24.09304743864033,408.0,1572.5806451612902,Ziepniekkalns
847,848,Zolitūde,Bieziņa 7,4,94.0,8/10,119.,95500.0,56.9452295,24.02045662144952,771.0,1015.9574468085108,Zolitūde
848,849,Bolderāja,Lielā 21,2,50.0,1/2,Specpr.,45000.0,57.03702785,24.042424693128496,1973.0,900.0,Bolderāja
849,850,Jugla,Brīvības 361,2,42.0,3/5,Hrušč.,58000.0,56.98751845,24.21741559085088,1378.0,1380.952380952381,Jugla
850,851,Purvciems,Staiceles 1/1,3,60.0,5/9,602.,89000.0,56.9579581,24.1695963,990.0,1483.3333333333333,Purvciems
851,852,Mežciems,Kaivas 50 K-1,3,74.0,2/5,Jaun.,125000.0,56.9571247,24.2475937,1006.0,1689.1891891891892,Mežciems
852,853,centrs,Bruņinieku 68,1,21.0,2/2,P. kara,29500.0,56.95274495,24.13815835270615,921.0,1404.7619047619048,Avoti
853,854,centrs,Dārzaugļu 1,1,55.0,1/7,Renov.,74250.0,56.964818,24.1504388,1049.0,1350.0,Grīziņkalns
854,855,centrs,Stabu 92,6,187.0,1/5,Renov.,78000.0,56.9599606,24.1209763,980.0,417.1122994652407,Centrs
855,856,centrs,Bruņinieku 10,4,133.0,5/6,P. kara,295000.0,56.958327,24.12649872637227,981.0,2218.0451127819547,Centrs
856,857,centrs,Valdemāra 106,5,145.0,1/6,Staļina,330000.0,56.9565184,24.1138584,979.0,2275.862068965517,Centrs
857,858,Teika,Ķeguma 52k-2,3,68.0,1/5,103.,100000.0,56.9667624,24.19445253628495,1121.0,1470.5882352941176,Teika
858,859,Iļģuciems,Saulgožu 11,2,48.0,1/5,Hrušč.,55700.0,56.96499195,24.04773241796048,1029.0,1160.4166666666667,Iļģuciems
859,860,Iļģuciems,Lidoņu 7,3,55.0,5/5,LT proj.,48500.0,56.97162175,24.06713282637923,1158.0,881.8181818181819,Iļģuciems
860,861,Sarkandaugava,Tilta 11,2,43.0,5/5,Hrušč.,55000.0,56.99587575,24.12791074268985,1486.0,1279.0697674418604,Sarkandaugava
861,862,Ziepniekkalns,Vadakstes 17,2,55.0,2/5,103.,58500.0,56.91299765,24.094636,408.0,1063.6363636363635,Ziepniekkalns
862,863,Mežciems,Mežciema 23,1,49.0,13/16,104.,56900.0,56.971605,24.2340818,1192.0,1161.2244897959183,Mežciems
863,864,Sarkandaugava,Hāpsalas 1/1,3,106.0,7/8,Renov.,159000.0,57.0027811,24.1212961,1547.0,1500.0,Sarkandaugava
864,865,Imanta,Slokas 136,2,49.0,2/9,602.,52800.0,56.9636255,24.007568105050204,1021.0,1077.5510204081634,Imanta
865,866,Ķengarags,Maskavas 266k3,2,47.0,2/5,Hrušč.,42500.0,56.9075514,24.18456924371181,363.0,904.2553191489362,Ķengarags
866,867,Katlakalns,Gulbju 1,1,28.0,1/2,P. kara,49000.0,56.865903450000005,24.188323909836704,,1750.0,Katlakalns
867,868,Purvciems,Žagatu 7,3,78.0,8/9,Jaun.,182000.0,56.96470855,24.18671777818259,1056.0,2333.333333333333,Purvciems
868,869,centrs,Ausekļa 3,4,105.0,3/6,P. kara,240000.0,56.9600455,24.099762636653608,976.0,2285.714285714286,Centrs
869,870,Imanta,Zentenes 20,3,61.0,1/9,602.,65000.0,56.961605250000005,24.00260342063303,1020.0,1065.573770491803,Imanta
